[
  {
    "city": "臺北市",
    "district": "士林區",
    "year": "91",
    "title": "陽光飛行",
    "author": "李良仁",
    "type": "雕塑、其他：機械裝置",
    "location": "天母西路及中山北路六段與七段交接處廣場／兩廣場各放置一個",
    "company": "東和開發股份有限公司 聯絡人-唐小姐0922498869/02-28767385"
  },
  {
    "city": "臺北市",
    "district": "士林區",
    "year": "91",
    "title": "飛行的魚",
    "author": "李良仁",
    "type": "雕塑、其他：機械裝置",
    "location": "天母東、西路及中山北路六段與七段交接處廣場／兩廣場各放置一個",
    "company": "東和開發股份有限公司 聯絡人-唐小姐0922498869/02-28767385"
  },
  {
    "city": "臺北市",
    "district": "士林區",
    "year": "92",
    "title": "哺育",
    "author": "王慶臺",
    "type": "雕塑",
    "location": "台北市文林路615巷20號／校門口",
    "company": "臺北市立文昌國民小學"
  },
  {
    "city": "臺北市",
    "district": "士林區",
    "year": "92",
    "title": "快樂出航",
    "author": "祝大元",
    "type": "雕塑、其他：司令台造型",
    "location": "台北市文林路615巷20號／操場司令台",
    "company": "臺北市立文昌國民小學"
  },
  {
    "city": "臺北市",
    "district": "士林區",
    "year": "92",
    "title": "闔家歡",
    "author": "賴永興",
    "type": "雕塑",
    "location": "台北市文林路615巷20號／校園植栽區",
    "company": "臺北市立文昌國民小學"
  },
  {
    "city": "臺北市",
    "district": "士林區",
    "year": "92",
    "title": "彩色人生",
    "author": "洪志成",
    "type": "雕塑",
    "location": "台北市文林路615巷20號／幼稚園前廣場",
    "company": "臺北市立文昌國民小學"
  },
  {
    "city": "臺北市",
    "district": "士林區",
    "year": "92",
    "title": "那天學校來了一群訪客之後",
    "author": "蔡根",
    "type": "雕塑",
    "location": "台北市文林路615巷20號／家長接送等待區廣場",
    "company": "臺北市立文昌國民小學"
  },
  {
    "city": "臺北市",
    "district": "士林區",
    "year": "93",
    "title": "西方星象圖",
    "author": "張明風",
    "type": "地坪鑲嵌",
    "location": "台北市士林區中山北路6段392號",
    "company": "台北市士林區士東國民小學"
  },
  {
    "city": "臺北市",
    "district": "士林區",
    "year": "93",
    "title": "中國天球圖",
    "author": "張明風",
    "type": "地坪鑲嵌",
    "location": "台北市士林區中山北路6段392號",
    "company": "台北市士林區士東國民小學"
  },
  {
    "city": "臺北市",
    "district": "士林區",
    "year": "93",
    "title": "滾球機器",
    "author": "喬治羅德",
    "type": "其他：機械裝置",
    "location": "台北市士林區士商路189號",
    "company": "國立台灣科學教育館"
  },
  {
    "city": "臺北市",
    "district": "士林區",
    "year": "93",
    "title": "紡紗之風",
    "author": "塔基士",
    "type": "其他：機械裝置",
    "location": "台北市士林區士商路189號",
    "company": "國立台灣科學教育館"
  },
  {
    "city": "臺北市",
    "district": "士林區",
    "year": "93",
    "title": "花．甲之年",
    "author": "楊尊智",
    "type": "地坪鑲嵌",
    "location": "內雙溪森林自然公園／至善路三段150巷42號",
    "company": "臺北市政府建設局"
  },
  {
    "city": "臺北市",
    "district": "士林區",
    "year": "94",
    "title": "星星、月亮、太陽",
    "author": "林淑秋",
    "type": "壁畫鑲嵌",
    "location": "葫蘆國小：環河北路三段95號",
    "company": "士林區葫蘆國民小學"
  },
  {
    "city": "臺北市",
    "district": "士林區",
    "year": "93",
    "title": "詩咚",
    "author": "張明風",
    "type": "雕塑、地坪鑲嵌",
    "location": "中山北路6段392號",
    "company": "台北市士林區士東國民小學"
  },
  {
    "city": "臺北市",
    "district": "士林區",
    "year": "93",
    "title": "來電E世代",
    "author": "",
    "type": "雕塑",
    "location": "台北市承德路基河路口",
    "company": "台灣電力公司輸變電工程處北區施工處"
  },
  {
    "city": "臺北市",
    "district": "大同區",
    "year": "91",
    "title": "Take a Break",
    "author": "同恩工業有限公司",
    "type": "其他：聲音裝置",
    "location": "長安西路37之1號／一樓川堂天花板",
    "company": "臺北市立建成國民中學"
  },
  {
    "city": "臺北市",
    "district": "大同區",
    "year": "91",
    "title": "快樂是什麼？",
    "author": "今豪廣告工程有限公司",
    "type": "其他：影像輸出燈箱",
    "location": "長安西路37之1號／一樓至三樓走廊",
    "company": "臺北市立建成國民中學"
  },
  {
    "city": "臺北市",
    "district": "大同區",
    "year": "91",
    "title": "地圖",
    "author": "黃文慶",
    "type": "壁畫鑲嵌",
    "location": "長安西路37之1號／川堂",
    "company": "臺北市立建成國民中學"
  },
  {
    "city": "臺北市",
    "district": "大同區",
    "year": "91",
    "title": "飛揚",
    "author": "黃銘哲",
    "type": "雕塑",
    "location": "長安西路37之1號／三樓至五樓走廊柱",
    "company": "臺北市立建成國民中學"
  },
  {
    "city": "臺北市",
    "district": "大同區",
    "year": "94",
    "title": "智與樂",
    "author": "",
    "type": "雕塑、其他：校園造型",
    "location": "大同區昌吉街97號",
    "company": "臺北市大同區延平國民小學"
  },
  {
    "city": "臺北市",
    "district": "大同區",
    "year": "94",
    "title": "舞春風",
    "author": "徐富騰",
    "type": "雕塑、其他：街道傢俱",
    "location": "玉泉公園：西寧北路28號／園區草坪上",
    "company": "台北市政府工務局公園路燈工程管理處"
  },
  {
    "city": "臺北市",
    "district": "大安區",
    "year": "90",
    "title": "星光時刻",
    "author": "陳慧嶠",
    "type": "地坪鑲嵌",
    "location": "市民大道延吉街口西側橋下鄰里公園",
    "company": "臺北市政府工務局新建工程處：台北市信義區市府路一號五樓南區"
  },
  {
    "city": "臺北市",
    "district": "信義區",
    "year": "90",
    "title": "合",
    "author": "李光裕",
    "type": "雕塑",
    "location": "市民大道、延吉街口交叉口安全島",
    "company": "臺北市政府工務局新建工程處：台北市信義區市府路一號五樓南區"
  },
  {
    "city": "臺北市",
    "district": "大安區",
    "year": "91",
    "title": "翔",
    "author": "林正仁",
    "type": "雕塑",
    "location": "台北市大安區新生南路三段30號／新生南路與親水步道口",
    "company": "公務人力發展中心聯絡人-吳怡如/83691399"
  },
  {
    "city": "臺北市",
    "district": "大安區",
    "year": "91",
    "title": "卓越與親民",
    "author": "高燦興",
    "type": "雕塑",
    "location": "台北市大安區新生南路三段30號／庭園",
    "company": "公務人力發展中心聯絡人-吳怡如/83691399"
  },
  {
    "city": "臺北市",
    "district": "大安區",
    "year": "91",
    "title": "昇華",
    "author": "張子隆",
    "type": "雕塑",
    "location": "台北市大安區新生南路三段30號／中心廣場",
    "company": "公務人力發展中心聯絡人-吳怡如/83691399"
  },
  {
    "city": "臺北市",
    "district": "大安區",
    "year": "91",
    "title": "宇宙",
    "author": "張子隆",
    "type": "雕塑",
    "location": "台北市大安區新生南路三段30號／室內大廳",
    "company": "公務人力發展中心聯絡人-吳怡如/83691399"
  },
  {
    "city": "臺北市",
    "district": "大安區",
    "year": "91",
    "title": "昂",
    "author": "陳正勳",
    "type": "雕塑、街道傢俱",
    "location": "台北市大安區新生南路三段30號／溫州街與親水步道口",
    "company": "公務人力發展中心聯絡人-吳怡如/83691399"
  },
  {
    "city": "臺北市",
    "district": "大安區",
    "year": "91",
    "title": "生機",
    "author": "黎志文",
    "type": "雕塑",
    "location": "台北市大安區新生南路三段30號／戶外庭園",
    "company": "公務人力發展中心聯絡人-吳怡如/83691399"
  },
  {
    "city": "臺北市",
    "district": "大安區",
    "year": "91",
    "title": "互動",
    "author": "黃銘哲",
    "type": "雕塑",
    "location": "台北市大安區新生南路三段30號／新生南路與辛亥路口",
    "company": "公務人力發展中心聯絡人-吳怡如/83691399"
  },
  {
    "city": "臺北市",
    "district": "大安區",
    "year": "91",
    "title": "大地",
    "author": "張乃文",
    "type": "雕塑、街道傢俱",
    "location": "信義路4段335巷6號／北側入口花台",
    "company": "設置-台北市大安地政事務所,台北市政府工務局建築管理處"
  },
  {
    "city": "臺北市",
    "district": "大安區",
    "year": "91",
    "title": "生命之歌",
    "author": "張乃文",
    "type": "雕塑",
    "location": "信義路4段335巷6號／一樓門廳",
    "company": "設置-台北市大安地政事務所,台北市政府工務局建築管理處"
  },
  {
    "city": "臺北市",
    "district": "大安區",
    "year": "91",
    "title": "星空下的悠遊－星海穹窿",
    "author": "黃位政",
    "type": "垂吊造型、其他：天花板彩繪",
    "location": "台北市延吉街246巷10號／樓梯穹窿天頂",
    "company": "設置-台北市政府社會局"
  },
  {
    "city": "臺北市",
    "district": "大安區",
    "year": "91",
    "title": "星空下的悠遊－摘星尋夢",
    "author": "黃位政",
    "type": "其他：玻璃彩繪燈箱",
    "location": "台北市延吉街246巷10號／一至三樓中央圓梯空間",
    "company": "設置-台北市政府社會局"
  },
  {
    "city": "臺北市",
    "district": "大安區",
    "year": "92",
    "title": "青春",
    "author": "楊柏林",
    "type": "雕塑",
    "location": "台北市大安區復興南路2段52號／停車場上方廣場",
    "company": "臺北市立大安高級工業職業學校／總務主任黃忠民02-27022084"
  },
  {
    "city": "臺北市",
    "district": "大安區",
    "year": "92",
    "title": "蒸蒸日上",
    "author": "王秀杞",
    "type": "雕塑",
    "location": "台北市大安區和平東路一段179號／國立編譯館右側通風口",
    "company": "國立編譯館"
  },
  {
    "city": "臺北市",
    "district": "大安區",
    "year": "92",
    "title": "百年樹人－童趣",
    "author": "王秀杞",
    "type": "雕塑",
    "location": "台北市大安區和平東路一段179號／國立編譯館入口左側",
    "company": "國立編譯館"
  },
  {
    "city": "臺北市",
    "district": "大安區",
    "year": "92",
    "title": "百年樹人－好奇的小孩",
    "author": "王秀杞",
    "type": "雕塑",
    "location": "台北市大安區和平東路一段179號／國立編譯館大廳左側",
    "company": "國立編譯館"
  },
  {
    "city": "臺北市",
    "district": "大安區",
    "year": "93",
    "title": "海燕戲春",
    "author": "林勝正",
    "type": "其他：玻璃鑲嵌",
    "location": "台北市復興南路2段92號",
    "company": "台北市政府消防局：台北市信義區松仁路1號"
  },
  {
    "city": "臺北市",
    "district": "大安區",
    "year": "93",
    "title": "民以食為天",
    "author": "許慧娜",
    "type": "壁畫浮雕",
    "location": "台北市大安區羅斯福路4段1號／食品科技研究所加工實驗室，工廠入門處牆壁",
    "company": "台灣大學"
  },
  {
    "city": "臺北市",
    "district": "大安區",
    "year": "94",
    "title": "室內組：速度的藝術",
    "author": "莊普",
    "type": "雕塑",
    "location": "台北市羅斯福路4段1號 室內組:體育館入口大廳右側挑空處",
    "company": "台灣大學"
  },
  {
    "city": "臺北市",
    "district": "大安區",
    "year": "94",
    "title": "室外組1：奧林匹克",
    "author": "黎志文",
    "type": "雕塑",
    "location": "台北市羅斯福路4段1號／體育館東側廣場（面對凝態館）",
    "company": "台灣大學"
  },
  {
    "city": "臺北市",
    "district": "大安區",
    "year": "94",
    "title": "室外組2：捷",
    "author": "林良材／觀想藝術有限公司",
    "type": "雕塑",
    "location": "台北市羅斯福路4段1號／體育館西側出入口",
    "company": "台灣大學"
  },
  {
    "city": "臺北市",
    "district": "大安區",
    "year": "94",
    "title": "世界觀",
    "author": "王存武",
    "type": "雕塑、其他：發光裝置",
    "location": "敦化南路一段280號／外交部外交領事人員講習所挑空中庭",
    "company": "外交部"
  },
  {
    "city": "臺北市",
    "district": "中山區",
    "year": "90",
    "title": "金樹歲月",
    "author": "王文志",
    "type": "雕塑、地坪鑲嵌",
    "location": "市民大道、松江路口西北側人行道",
    "company": "臺北市政府工務局新建工程處：台北市信義區市府路一號五樓南區"
  },
  {
    "city": "臺北市",
    "district": "中正區",
    "year": "90",
    "title": "韻－生命之旅 Rhyme",
    "author": "何恆雄",
    "type": "雕塑",
    "location": "市民大道、中山北路口西側中央分隔島",
    "company": "臺北市政府工務局新建工程處：台北市信義區市府路一號五樓南區"
  },
  {
    "city": "臺北市",
    "district": "中山區",
    "year": "92",
    "title": "生",
    "author": "賴純純",
    "type": "雕塑、垂吊造型",
    "location": "台北市中山區林森北路577號／大廳",
    "company": "臺灣銀行圓山分行"
  },
  {
    "city": "臺北市",
    "district": "中山區",
    "year": "92",
    "title": "會思考的鳥",
    "author": "林勝正",
    "type": "雕塑",
    "location": "台北市中山北路2段44巷2號",
    "company": "台北市政府工務局新建工程處"
  },
  {
    "city": "臺北市",
    "district": "中山區",
    "year": "92",
    "title": "和",
    "author": "賴純純",
    "type": "雕塑",
    "location": "台北市中山區林森北路577號／南側出入口半戶外空間",
    "company": "臺灣銀行圓山分行"
  },
  {
    "city": "臺北市",
    "district": "中山區",
    "year": "95",
    "title": "遊戲棋盤",
    "author": "丹尼爾‧布罕",
    "type": "其他：陶瓷鑲嵌",
    "location": "臺北市中山區 樂群二路262號",
    "company": "臺北市立濱江國民中學"
  },
  {
    "city": "臺北市",
    "district": "中山區",
    "year": "95",
    "title": "向大師致敬",
    "author": "張乃文",
    "type": "工藝",
    "location": "臺北市中山區 樂群二路262號",
    "company": "臺北市立濱江國中"
  },
  {
    "city": "臺北市",
    "district": "中山區",
    "year": "95",
    "title": "時空跑者",
    "author": "林書民",
    "type": "垂吊造型",
    "location": "臺北市中山區 樂群二路262號",
    "company": "臺北市立濱江國中"
  },
  {
    "city": "臺北市",
    "district": "中山區",
    "year": "95",
    "title": "虹彩耀濱",
    "author": "李昀珊",
    "type": "雕塑、壁畫鑲嵌",
    "location": "臺北市中山區樂群街二段266巷99號",
    "company": "台北市中山區濱江國民小學"
  },
  {
    "city": "臺北市",
    "district": "士林區",
    "year": "95",
    "title": "萬物浮游",
    "author": "王良銘",
    "type": "其他：地下道造型",
    "location": "臺北市士林區中山北路四段通河街口人行地下道",
    "company": "臺北市政府工務局養護工程處"
  },
  {
    "city": "臺北市",
    "district": "中正區",
    "year": "89",
    "title": "點子",
    "author": "袁廣鳴",
    "type": "雕塑、其他：發光裝置",
    "location": "台北市羅斯福路四段、基隆路四段交口 公館圓環西側台電試驗所大樓前庭",
    "company": "臺灣電力公司試驗所"
  },
  {
    "city": "臺北市",
    "district": "中正區",
    "year": "91",
    "title": "台北府城春秋",
    "author": "李乾朗",
    "type": "其他：古蹟史料展示",
    "location": "廣場二／櫥櫃一（依台北市地理資訊e點通「捷運台北車站地下街」忠孝西路一段50之1號為經緯度查詢地址）",
    "company": "臺北市政府捷運工程局"
  },
  {
    "city": "臺北市",
    "district": "中正區",
    "year": "91",
    "title": "城樓探源",
    "author": "李乾朗",
    "type": "其他：模型",
    "location": "廣場二／櫥櫃二（依台北市地理資訊e點通「捷運台北車站地下街」忠孝西路一段50之1號為經緯度查詢地址）",
    "company": "臺北市政府捷運工程局"
  },
  {
    "city": "臺北市",
    "district": "中正區",
    "year": "91",
    "title": "再現古城風華",
    "author": "李乾朗",
    "type": "其他：古蹟史料展示",
    "location": "廣場二／櫥櫃三（依台北市地理資訊e點通「捷運台北車站地下街」忠孝西路一段50之1號為經緯度查詢地址）",
    "company": "臺北市政府捷運工程局"
  },
  {
    "city": "臺北市",
    "district": "中正區",
    "year": "91",
    "title": "城牆乾坤",
    "author": "李乾朗",
    "type": "其他：古蹟史料展示",
    "location": "廣場二／櫥櫃四（依台北市地理資訊e點通「捷運台北車站地下街」忠孝西路一段50之1號為經緯度查詢地址）",
    "company": "臺北市政府捷運工程局"
  },
  {
    "city": "臺北市",
    "district": "中正區",
    "year": "91",
    "title": "古城一石條",
    "author": "王為河",
    "type": "其他：古蹟史料展示",
    "location": "廣場三西側牆海上之船；廣場三東側牆飛行船（依台北市地理資訊e點通「捷運台北車站地下街」忠孝西路一段50之1號為經緯度查詢地址）",
    "company": "臺北市政府捷運工程局"
  },
  {
    "city": "臺北市",
    "district": "中正區",
    "year": "92",
    "title": "青天之翼",
    "author": "郭清治",
    "type": "雕塑",
    "location": "台北市泉州街40號(中華路2段、泉州街口)",
    "company": "臺北市政府警察局 "
  },
  {
    "city": "臺北市",
    "district": "中正區",
    "year": "92",
    "title": "門",
    "author": "劉中興",
    "type": "雕塑",
    "location": "台北市愛國西路一號／公園路對外入口",
    "company": "－"
  },
  {
    "city": "臺北市",
    "district": "中正區",
    "year": "92",
    "title": "生機之一",
    "author": "楊柏林",
    "type": "雕塑",
    "location": "台北市中山南路七號／一樓大廳  ",
    "company": "國立臺灣大學醫學院"
  },
  {
    "city": "臺北市",
    "district": "中正區",
    "year": "92",
    "title": "生機之二",
    "author": "楊柏林",
    "type": "雕塑",
    "location": "台北市中山南路七號／二、三樓挑空靠窗處",
    "company": "國立臺灣大學醫學院"
  },
  {
    "city": "臺北市",
    "district": "中正區",
    "year": "92",
    "title": "花舞浮波",
    "author": "陳麗杏",
    "type": "雕塑、水景",
    "location": "台北市中山南路七號／會議中心前方與藥學館間戶外水池",
    "company": "國立臺灣大學醫學院"
  },
  {
    "city": "臺北市",
    "district": "中正區",
    "year": "92",
    "title": "洄",
    "author": "姜憲明",
    "type": "雕塑",
    "location": "台北市中山南路七號／臺灣大學醫學院附設醫院會議中心大門口左側",
    "company": "國立臺灣大學醫學院"
  },
  {
    "city": "臺北市",
    "district": "中正區",
    "year": "92",
    "title": "水之變奏曲(水舞)",
    "author": "姜憲明",
    "type": "雕塑",
    "location": "台北市中山南路七號／臺灣大學醫學院附設醫院會議中心前方鄰藥學館前戶外開放空間",
    "company": "國立臺灣大學醫學院"
  },
  {
    "city": "臺北市",
    "district": "中正區",
    "year": "92",
    "title": "杏林大地",
    "author": "陳麗杏",
    "type": "雕塑",
    "location": "台北市中山南路七號／臺灣大學醫學院附設醫院會議中心後方與醫院主體間綠地",
    "company": "國立臺灣大學醫學院"
  },
  {
    "city": "臺北市",
    "district": "中正區",
    "year": "93",
    "title": "山水",
    "author": "黎志文",
    "type": "雕塑",
    "location": "台灣高等法院：台北市中正區貴陽街1段233號／第一區",
    "company": "台灣高等法院"
  },
  {
    "city": "臺北市",
    "district": "中正區",
    "year": "93",
    "title": "見證",
    "author": "黃銘哲",
    "type": "垂吊造型",
    "location": "台灣高等法院：台北市中正區貴陽街1段233號／第二區",
    "company": "台灣高等法院"
  },
  {
    "city": "臺北市",
    "district": "中正區",
    "year": "93",
    "title": "規矩新象",
    "author": "盧明德",
    "type": "其他：不鏽鋼板壁飾",
    "location": "台灣高等法院：台北市中正區貴陽街1段233號／第三區",
    "company": "台灣高等法院"
  },
  {
    "city": "臺北市",
    "district": "中正區",
    "year": "94",
    "title": "白日夢",
    "author": "簡俊成",
    "type": "雕塑",
    "location": "三元街131號／主要出入口旁",
    "company": "台北市工務局新建工程處：台北市信義區市府路1號5樓南區"
  },
  {
    "city": "臺北市",
    "district": "萬華區",
    "year": "92",
    "title": "浮光掠影 青春風華",
    "author": "張明風",
    "type": "雕塑、工藝",
    "location": "西門市場北廣場內（成都路三八號屋後）",
    "company": "財團法人台北市文化基金會(西門紅樓)"
  },
  {
    "city": "臺北市",
    "district": "內湖區",
    "year": "90",
    "title": "風雲際會－鳥人",
    "author": "董振平",
    "type": "雕塑",
    "location": "民權東路六段123巷34弄31號／入口廣場",
    "company": "台灣電力公司內湖民權變電所"
  },
  {
    "city": "臺北市",
    "district": "內湖區",
    "year": "90",
    "title": "元素",
    "author": "董振平",
    "type": "雕塑",
    "location": "民權東路六段123巷34弄31號／入口廣場",
    "company": "台灣電力公司內湖民權變電所"
  },
  {
    "city": "臺北市",
    "district": "內湖區",
    "year": "91",
    "title": "成長與教育A、B、C",
    "author": "高燦興",
    "type": "雕塑",
    "location": "台北市內湖區文德路200號／中庭花園、第二棟及第三棟校舍間",
    "company": "台北市立內湖高級中學 聯絡人-李主任碧月/27977035-309"
  },
  {
    "city": "臺北市",
    "district": "內湖區",
    "year": "92",
    "title": "知識就是力量、一起去冒險",
    "author": "張乃文",
    "type": "雕塑",
    "location": "東湖路115號",
    "company": "臺北市政府停車管理處"
  },
  {
    "city": "臺北市",
    "district": "內湖區",
    "year": "92",
    "title": "晃動的眼睛(共10只)",
    "author": "蔡海如",
    "type": "雕塑",
    "location": "內湖污水處理廠親水公園：台北市內湖區舊宗路2段2號",
    "company": "－"
  },
  {
    "city": "臺北市",
    "district": "內湖區",
    "year": "93",
    "title": "童年",
    "author": "吳宇棠",
    "type": "繪畫",
    "location": "台北市民權東路6段91號／3F-1",
    "company": "台灣士林地方法院"
  },
  {
    "city": "臺北市",
    "district": "內湖區",
    "year": "93",
    "title": "紅花鄉情",
    "author": "楊興生",
    "type": "繪畫",
    "location": "台北市民權東路6段91號／3F-2-1",
    "company": "台灣士林地方法院"
  },
  {
    "city": "臺北市",
    "district": "內湖區",
    "year": "93",
    "title": "花賞",
    "author": "吳昊",
    "type": "繪畫",
    "location": "台北市民權東路6段91號／3F-2-2",
    "company": "台灣士林地方法院"
  },
  {
    "city": "臺北市",
    "district": "內湖區",
    "year": "93",
    "title": "關渡閒舟",
    "author": "蘇憲法",
    "type": "繪畫",
    "location": "台北市民權東路6段91號／3F-2-3",
    "company": "台灣士林地方法院"
  },
  {
    "city": "臺北市",
    "district": "內湖區",
    "year": "93",
    "title": "瓦日河畔",
    "author": "連建興",
    "type": "繪畫",
    "location": "台北市民權東路6段91號／3F-3-1",
    "company": "台灣士林地方法院"
  },
  {
    "city": "臺北市",
    "district": "內湖區",
    "year": "93",
    "title": "現象",
    "author": "顧何忠",
    "type": "繪畫",
    "location": "台北市民權東路6段91號／3F-3-2",
    "company": "台灣士林地方法院"
  },
  {
    "city": "臺北市",
    "district": "內湖區",
    "year": "93",
    "title": "銅盆裡的花",
    "author": "王健碧",
    "type": "繪畫",
    "location": "台北市民權東路6段91號／3F-3-3",
    "company": "台灣士林地方法院"
  },
  {
    "city": "臺北市",
    "district": "內湖區",
    "year": "93",
    "title": "有非洲木匙的靜物",
    "author": "梁晉嘉",
    "type": "繪畫",
    "location": "台北市民權東路6段91號／3F-3-4",
    "company": "台灣士林地方法院"
  },
  {
    "city": "臺北市",
    "district": "內湖區",
    "year": "93",
    "title": "行書中堂",
    "author": "呂佛庭",
    "type": "其他：書法",
    "location": "台北市民權東路6段91號／3F-4",
    "company": "台灣士林地方法院"
  },
  {
    "city": "臺北市",
    "district": "內湖區",
    "year": "93",
    "title": "重彩禽鳥",
    "author": "劉太希",
    "type": "繪畫",
    "location": "台北市民權東路6段91號／3F-5-1",
    "company": "台灣士林地方法院"
  },
  {
    "city": "臺北市",
    "district": "內湖區",
    "year": "93",
    "title": "情意長",
    "author": "黃光男",
    "type": "繪畫",
    "location": "台北市民權東路6段91號／3F-5-2",
    "company": "台灣士林地方法院"
  },
  {
    "city": "臺北市",
    "district": "內湖區",
    "year": "93",
    "title": "奇峰出雲",
    "author": "胡念祖",
    "type": "繪畫",
    "location": "台北市民權東路6段91號／3F-5-3",
    "company": "台灣士林地方法院"
  },
  {
    "city": "臺北市",
    "district": "內湖區",
    "year": "93",
    "title": "行書",
    "author": "陳子和",
    "type": "其他：書法",
    "location": "台北市民權東路6段91號／3F-6",
    "company": "台灣士林地方法院"
  },
  {
    "city": "臺北市",
    "district": "內湖區",
    "year": "93",
    "title": "劇：尋河",
    "author": "王萬春",
    "type": "繪畫",
    "location": "台北市民權東路6段91號／4F-1-1",
    "company": "台灣士林地方法院"
  },
  {
    "city": "臺北市",
    "district": "內湖區",
    "year": "93",
    "title": "淡水人物",
    "author": "鄭在東",
    "type": "繪畫",
    "location": "台北市民權東路6段91號／4F-1-2",
    "company": "台灣士林地方法院"
  },
  {
    "city": "臺北市",
    "district": "內湖區",
    "year": "93",
    "title": "作品",
    "author": "陳世明",
    "type": "繪畫",
    "location": "台北市民權東路6段91號／4F-1-3",
    "company": "台灣士林地方法院"
  },
  {
    "city": "臺北市",
    "district": "內湖區",
    "year": "93",
    "title": "心境",
    "author": "郭娟秋",
    "type": "繪畫",
    "location": "台北市民權東路6段91號／4F-2-1",
    "company": "台灣士林地方法院"
  },
  {
    "city": "臺北市",
    "district": "內湖區",
    "year": "93",
    "title": "馬戲",
    "author": "趙國宗",
    "type": "繪畫",
    "location": "台北市民權東路6段91號／4F-2-3",
    "company": "台灣士林地方法院"
  },
  {
    "city": "臺北市",
    "district": "內湖區",
    "year": "93",
    "title": "形與色面",
    "author": "曲德義",
    "type": "繪畫",
    "location": "台北市民權東路6段91號／4F-2-4",
    "company": "台灣士林地方法院"
  },
  {
    "city": "臺北市",
    "district": "內湖區",
    "year": "93",
    "title": "Feb-91",
    "author": "霍剛",
    "type": "繪畫",
    "location": "台北市民權東路6段91號／4F-2-5",
    "company": "台灣士林地方法院"
  },
  {
    "city": "臺北市",
    "district": "內湖區",
    "year": "93",
    "title": "窗邊靜物",
    "author": "潘朝森",
    "type": "繪畫",
    "location": "台北市民權東路6段91號／4F-2-6",
    "company": "台灣士林地方法院"
  },
  {
    "city": "臺北市",
    "district": "內湖區",
    "year": "93",
    "title": "海岳書史",
    "author": "王壯為",
    "type": "其他：書法",
    "location": "台北市民權東路6段91號／4F-3",
    "company": "台灣士林地方法院"
  },
  {
    "city": "臺北市",
    "district": "內湖區",
    "year": "93",
    "title": "書法四屏",
    "author": "張昭翎",
    "type": "其他：書法",
    "location": "台北市民權東路6段91號／4F-4-1",
    "company": "台灣士林地方法院"
  },
  {
    "city": "臺北市",
    "district": "內湖區",
    "year": "93",
    "title": "寒林瑞雪",
    "author": "許郭璜",
    "type": "繪畫",
    "location": "台北市民權東路6段91號／4F-4-2",
    "company": "台灣士林地方法院"
  },
  {
    "city": "臺北市",
    "district": "內湖區",
    "year": "93",
    "title": "丘壑素練",
    "author": "許郭璜",
    "type": "繪畫",
    "location": "台北市民權東路6段91號／4F-4-3",
    "company": "台灣士林地方法院"
  },
  {
    "city": "臺北市",
    "district": "內湖區",
    "year": "93",
    "title": "武陵勝境",
    "author": "于彭",
    "type": "繪畫",
    "location": "台北市民權東路6段91號／4F-4-5",
    "company": "台灣士林地方法院"
  },
  {
    "city": "臺北市",
    "district": "內湖區",
    "year": "93",
    "title": "四季（一組四件）",
    "author": "廖修平",
    "type": "繪畫",
    "location": "台北市民權東路6段91號／5F-1-1",
    "company": "台灣士林地方法院"
  },
  {
    "city": "臺北市",
    "district": "內湖區",
    "year": "93",
    "title": "大氣之31",
    "author": "蕭勤",
    "type": "繪畫",
    "location": "台北市民權東路6段91號／5F-1-2",
    "company": "台灣士林地方法院"
  },
  {
    "city": "臺北市",
    "district": "內湖區",
    "year": "93",
    "title": "建設#2",
    "author": "陳庭詩",
    "type": "繪畫",
    "location": "台北市民權東路6段91號／5F-2-1",
    "company": "台灣士林地方法院"
  },
  {
    "city": "臺北市",
    "district": "內湖區",
    "year": "93",
    "title": "兩人行",
    "author": "林淵",
    "type": "繪畫",
    "location": "台北市民權東路6段91號／5F-2-2",
    "company": "台灣士林地方法院"
  },
  {
    "city": "臺北市",
    "district": "內湖區",
    "year": "93",
    "title": "夏夜",
    "author": "廖修平",
    "type": "繪畫",
    "location": "台北市民權東路6段91號／5F-2-3",
    "company": "台灣士林地方法院"
  },
  {
    "city": "臺北市",
    "district": "內湖區",
    "year": "93",
    "title": "戲猴",
    "author": "吳炫三",
    "type": "繪畫",
    "location": "台北市民權東路6段91號／5F-2-4",
    "company": "台灣士林地方法院"
  },
  {
    "city": "臺北市",
    "district": "內湖區",
    "year": "93",
    "title": "遠山",
    "author": "袁旃",
    "type": "繪畫",
    "location": "台北市民權東路6段91號／5F-2-5",
    "company": "台灣士林地方法院"
  },
  {
    "city": "臺北市",
    "district": "內湖區",
    "year": "93",
    "title": "荷花",
    "author": "胡公壽",
    "type": "繪畫",
    "location": "台北市民權東路6段91號／5F-3-1",
    "company": "台灣士林地方法院"
  },
  {
    "city": "臺北市",
    "district": "內湖區",
    "year": "93",
    "title": "魚蝦圖",
    "author": "丁衍庸",
    "type": "繪畫",
    "location": "台北市民權東路6段91號／5F-3-2",
    "company": "台灣士林地方法院"
  },
  {
    "city": "臺北市",
    "district": "內湖區",
    "year": "93",
    "title": "書法條幅",
    "author": "葉公超",
    "type": "繪畫",
    "location": "台北市民權東路6段91號／5F-3-3",
    "company": "台灣士林地方法院"
  },
  {
    "city": "臺北市",
    "district": "內湖區",
    "year": "93",
    "title": "梅花",
    "author": "何煜",
    "type": "繪畫",
    "location": "台北市民權東路6段91號／5F-3-4",
    "company": "台灣士林地方法院"
  },
  {
    "city": "臺北市",
    "district": "內湖區",
    "year": "93",
    "title": "瘦金體楷書",
    "author": "莊嚴",
    "type": "其他：書法",
    "location": "台北市民權東路6段91號／5F-3-5",
    "company": "台灣士林地方法院"
  },
  {
    "city": "臺北市",
    "district": "內湖區",
    "year": "93",
    "title": "老藤秋葉（紫藤）",
    "author": "",
    "type": "繪畫",
    "location": "台北市民權東路6段91號／5F-3-6",
    "company": "台灣士林地方法院"
  },
  {
    "city": "臺北市",
    "district": "內湖區",
    "year": "93",
    "title": "朱家山水中堂",
    "author": "吳子深",
    "type": "繪畫",
    "location": "台北市民權東路6段91號／5F-3-7",
    "company": "台灣士林地方法院"
  },
  {
    "city": "臺北市",
    "district": "內湖區",
    "year": "93",
    "title": "花與流水之歌",
    "author": "張金蓮",
    "type": "繪畫",
    "location": "台北市民權東路6段91號／5F-4",
    "company": "台灣士林地方法院"
  },
  {
    "city": "臺北市",
    "district": "內湖區",
    "year": "93",
    "title": "松濤",
    "author": "薛平南",
    "type": "其他：書法",
    "location": "台北市民權東路6段91號／2樓調解室一",
    "company": "台灣士林地方法院"
  },
  {
    "city": "臺北市",
    "district": "內湖區",
    "year": "93",
    "title": "草書條幅",
    "author": "黃群英",
    "type": "其他：書法",
    "location": "台北市民權東路6段91號／2樓調解室二",
    "company": "台灣士林地方法院"
  },
  {
    "city": "臺北市",
    "district": "內湖區",
    "year": "93",
    "title": "隷書中堂",
    "author": "鄭善禧",
    "type": "其他：書法",
    "location": "台北市民權東路6段92號／2樓律師休息室",
    "company": "台灣士林地方法院"
  },
  {
    "city": "臺北市",
    "district": "內湖區",
    "year": "93",
    "title": "「泰山嵩嶽」橫幅",
    "author": "黃群英",
    "type": "其他：書法",
    "location": "台北市民權東路6段93號／2樓記者室",
    "company": "台灣士林地方法院"
  },
  {
    "city": "臺北市",
    "district": "內湖區",
    "year": "93",
    "title": "臨瘦金體",
    "author": "江正誠",
    "type": "其他：書法",
    "location": "台北市民權東路6段94號／3樓調解室一",
    "company": "台灣士林地方法院"
  },
  {
    "city": "臺北市",
    "district": "內湖區",
    "year": "93",
    "title": "書法二屏之一",
    "author": "黃群英",
    "type": "其他：書法",
    "location": "台北市民權東路6段94號／3樓調解室一",
    "company": "台灣士林地方法院"
  },
  {
    "city": "臺北市",
    "district": "內湖區",
    "year": "93",
    "title": "書法二屏之二",
    "author": "黃群英",
    "type": "其他：書法",
    "location": "台北市民權東路6段94號／3樓調解室一",
    "company": "台灣士林地方法院"
  },
  {
    "city": "臺北市",
    "district": "內湖區",
    "year": "93",
    "title": "草書之一",
    "author": "黃群英",
    "type": "其他：書法",
    "location": "台北市民權東路6段94號／3樓調解室二",
    "company": "台灣士林地方法院"
  },
  {
    "city": "臺北市",
    "district": "內湖區",
    "year": "93",
    "title": "草書之二",
    "author": "黃群英",
    "type": "其他：書法",
    "location": "台北市民權東路6段94號／3樓調解室二",
    "company": "台灣士林地方法院"
  },
  {
    "city": "臺北市",
    "district": "內湖區",
    "year": "93",
    "title": "草書之三",
    "author": "黃群英",
    "type": "其他：書法",
    "location": "台北市民權東路6段94號／3樓調解室二",
    "company": "台灣士林地方法院"
  },
  {
    "city": "臺北市",
    "district": "內湖區",
    "year": "93",
    "title": "無題7粉藍(2/2)",
    "author": "蕭勤",
    "type": "繪畫",
    "location": "台北市民權東路6段100號／3樓律師休息室一",
    "company": "台灣士林地方法院"
  },
  {
    "city": "臺北市",
    "district": "內湖區",
    "year": "93",
    "title": "無題8橙(2/2)",
    "author": "蕭勤",
    "type": "繪畫",
    "location": "台北市民權東路6段100號／3樓律師休息室一",
    "company": "台灣士林地方法院"
  },
  {
    "city": "臺北市",
    "district": "內湖區",
    "year": "93",
    "title": "乘溪河面",
    "author": "羅青",
    "type": "繪畫",
    "location": "台北市民權東路6段100號／3樓律師休息室一",
    "company": "台灣士林地方法院"
  },
  {
    "city": "臺北市",
    "district": "內湖區",
    "year": "93",
    "title": "「謹言修身」橫幅",
    "author": "黃群英",
    "type": "其他：書法",
    "location": "台北市民權東路6段100號／3樓律師休息室二",
    "company": "台灣士林地方法院"
  },
  {
    "city": "臺北市",
    "district": "內湖區",
    "year": "93",
    "title": "山水湖光：碧湖攬勝、基河夕照、大湖遠眺（三件）",
    "author": "吳達坤",
    "type": "繪畫",
    "location": "台北市民權東路6段91號",
    "company": "台灣士林地方法院"
  },
  {
    "city": "臺北市",
    "district": "內湖區",
    "year": "93",
    "title": "律法三天使",
    "author": "蔡根",
    "type": "雕塑",
    "location": "台北市民權東路6段91號",
    "company": "台灣士林地方法院"
  },
  {
    "city": "臺北市",
    "district": "內湖區",
    "year": "93",
    "title": "生活#1",
    "author": "廖修平",
    "type": "繪畫",
    "location": "台北市民權東路6段91號／2F-1",
    "company": "台灣士林地方法院"
  },
  {
    "city": "臺北市",
    "district": "內湖區",
    "year": "93",
    "title": "雲海",
    "author": "朱德群",
    "type": "繪畫",
    "location": "台北市民權東路6段91號／2F-2-2",
    "company": "台灣士林地方法院"
  },
  {
    "city": "臺北市",
    "district": "內湖區",
    "year": "93",
    "title": "五張河床",
    "author": "觀想藝術有限公司",
    "type": "雕塑、街道傢俱",
    "location": "台北市內湖區行忠路178巷1號／民眾資源回收廣場(床五張相連，舖面350平方公分)",
    "company": "臺北市政府環境保護局"
  },
  {
    "city": "臺北市",
    "district": "內湖區",
    "year": "93",
    "title": "再造教育",
    "author": "徐瑞憲／觀想藝術有限公司",
    "type": "雕塑、垂吊造型、其他：機械裝置",
    "location": "台北市內湖區行忠路178巷1號／資源回收教育館",
    "company": "臺北市政府環境保護局"
  },
  {
    "city": "臺北市",
    "district": "內湖區",
    "year": "94",
    "title": "森洋",
    "author": "陳宏誠",
    "type": "雕塑",
    "location": "台北市內湖區舊宗路二段213巷1號",
    "company": "台北市政府工務局衛生下水道工程處"
  },
  {
    "city": "臺北市",
    "district": "內湖區",
    "year": "94",
    "title": "浴火鳳凰",
    "author": "黃文慶",
    "type": "雕塑、其他：彩色玻璃鑲嵌造型",
    "location": "台北市民權東路六段9號",
    "company": "臺北市政府消防局 後勤科殷占坤 (T)2729-7668#6507 (F)2758-5513"
  },
  {
    "city": "臺北市",
    "district": "內湖區",
    "year": "94",
    "title": "大地之心+意象之球",
    "author": "李天鐸",
    "type": "垂吊造型、地坪鑲嵌",
    "location": "台北市內湖區康寧路三段200號／中央主軸區川堂",
    "company": "臺北市南湖高級中學"
  },
  {
    "city": "臺北市",
    "district": "內湖區",
    "year": "94",
    "title": "生命之環",
    "author": "李天鐸",
    "type": "雕塑、街道傢俱",
    "location": "台北市內湖區康寧路三段200號／中央主軸區二樓",
    "company": "臺北市南湖高級中學"
  },
  {
    "city": "臺北市",
    "district": "內湖區",
    "year": "94",
    "title": "光之城市",
    "author": "李天鐸",
    "type": "雕塑、水景、紀念碑柱",
    "location": "台北市內湖區康寧路三段200號／中央主軸區中庭",
    "company": "臺北市南湖高級中學"
  },
  {
    "city": "臺北市",
    "district": "內湖區",
    "year": "94",
    "title": "超越之道",
    "author": "李天鐸",
    "type": "雕塑",
    "location": "台北市內湖區康寧路三段200號／中央主軸區操場",
    "company": "臺北市南湖高級中學"
  },
  {
    "city": "臺北市",
    "district": "內湖區",
    "year": "94",
    "title": "日出",
    "author": "黎志文",
    "type": "雕塑、壁畫鑲嵌",
    "location": "台北市內湖區康寧路三段200號／活動中心牆面與廣場",
    "company": "臺北市南湖高級中學"
  },
  {
    "city": "臺北市",
    "district": "內湖區",
    "year": "94",
    "title": "鱗鱗波光－水波",
    "author": "",
    "type": "雕塑、其他：三稜鏡",
    "location": "台北市內湖區康寧路三段200號／南北中庭區牆面",
    "company": "臺北市南湖高級中學"
  },
  {
    "city": "臺北市",
    "district": "內湖區",
    "year": "94",
    "title": "????-????",
    "author": "",
    "type": "雕塑",
    "location": "台北市內湖區康寧路三段200號／南中庭二樓廣場",
    "company": "臺北市南湖高級中學"
  },
  {
    "city": "臺北市",
    "district": "內湖區",
    "year": "94",
    "title": "鱗鱗波光－悠游的魚",
    "author": "",
    "type": "壁畫鑲嵌",
    "location": "台北市內湖區康寧路三段200號／活動中心二樓西側牆面",
    "company": "臺北市南湖高級中學"
  },
  {
    "city": "臺北市",
    "district": "內湖區",
    "year": "94",
    "title": "鱗鱗波光－人、魚",
    "author": "",
    "type": "壁畫鑲嵌",
    "location": "台北市內湖區康寧路三段200號／活動中心三樓西側牆面",
    "company": "臺北市南湖高級中學"
  },
  {
    "city": "臺北市",
    "district": "內湖區",
    "year": "94",
    "title": "鱗鱗波光－隧道",
    "author": "",
    "type": "壁畫鑲嵌",
    "location": "台北市內湖區康寧路三段200號／活動中心四樓西側牆面",
    "company": "臺北市南湖高級中學"
  },
  {
    "city": "臺北市",
    "district": "內湖區",
    "year": "94",
    "title": "躍動種子",
    "author": "台揚工程設計有限公司",
    "type": "雕塑、其他：校徽及標誌",
    "location": "台北市內湖區康寧路三段200號／校門等處",
    "company": "臺北市南湖高級中學"
  },
  {
    "city": "臺北市",
    "district": "內湖區",
    "year": "94",
    "title": "飛鳥（共7件）",
    "author": "蒲浩明",
    "type": "雕塑",
    "location": "台北市內湖區環山路二段100號／校門口左側水池圍牆",
    "company": "臺北市立麗山高級中學"
  },
  {
    "city": "臺北市",
    "district": "內湖區",
    "year": "94",
    "title": "小水滴的對談",
    "author": "蒲浩明",
    "type": "雕塑",
    "location": "台北市內湖區環山路二段100號／行政大樓前之廣場",
    "company": "臺北市立麗山高級中學"
  },
  {
    "city": "臺北市",
    "district": "內湖區",
    "year": "94",
    "title": "誕蛋（共5件）",
    "author": "蒲浩明",
    "type": "雕塑",
    "location": "台北市內湖區環山路二段100號／教學大樓右側廣場",
    "company": "臺北市立麗山高級中學"
  },
  {
    "city": "臺北市",
    "district": "內湖區",
    "year": "94",
    "title": "麗山之星",
    "author": "蒲浩明",
    "type": "雕塑",
    "location": "台北市內湖區環山路二段100號／校園中央走道最後端點之方形草坪上",
    "company": "臺北市立麗山高級中學"
  },
  {
    "city": "臺北市",
    "district": "內湖區",
    "year": "94",
    "title": "時光之旅",
    "author": "蒲浩明",
    "type": "雕塑",
    "location": "台北市內湖區環山路二段100號／圖書館前中庭側牆禮堂外中庭的側牆",
    "company": "臺北市立麗山高級中學"
  },
  {
    "city": "臺北市",
    "district": "內湖區",
    "year": "95",
    "title": "圓融",
    "author": "東堉有限公司",
    "type": "壁畫鑲嵌",
    "location": "台北市內湖區環山路一段27號",
    "company": "臺北市立西湖國民中學"
  },
  {
    "city": "臺北市",
    "district": "內湖區",
    "year": "95",
    "title": "琦麗湖色 生生不息",
    "author": "",
    "type": "壁畫鑲嵌、地坪鑲嵌、街道傢俱",
    "location": "臺北市內湖區金湖路363巷8號",
    "company": "臺北市內湖區麗湖國民小學"
  },
  {
    "city": "臺北市",
    "district": "內湖區",
    "year": "95",
    "title": "希望城堡",
    "author": "鄧惠芬",
    "type": "壁畫鑲嵌",
    "location": "臺北市內湖區金湖路363巷8號",
    "company": "臺北市內湖區麗湖國民小學"
  },
  {
    "city": "臺北市",
    "district": "內湖區",
    "year": "95",
    "title": "綠動:波光水影",
    "author": "胡棟民",
    "type": "壁畫鑲嵌",
    "location": "臺北市內湖區金湖路363巷8號",
    "company": "臺北市內湖區麗湖國民小學"
  },
  {
    "city": "臺北市",
    "district": "內湖區",
    "year": "95",
    "title": "綠動:數字城堡",
    "author": "胡棟民",
    "type": "雕塑",
    "location": "臺北市內湖區金湖路363巷8號",
    "company": "臺北市內湖區麗湖國民小學"
  },
  {
    "city": "臺北市",
    "district": "文山區",
    "year": "92",
    "title": "書韻之美－筆韻",
    "author": "",
    "type": "雕塑",
    "location": "台北市景後街151號5至10樓／正門入口處前花台",
    "company": "台北市立圖書館"
  },
  {
    "city": "臺北市",
    "district": "文山區",
    "year": "92",
    "title": "書韻之美－懷素臨帖",
    "author": "",
    "type": "其他：不鏽鋼陰刻版",
    "location": "台北市景後街151號5至10樓／景新圖書館後方小型圓形廣場之牆面(共四片)",
    "company": "臺北市立圖書館景新分館"
  },
  {
    "city": "臺北市",
    "district": "文山區",
    "year": "92",
    "title": "來自風中的芬芳",
    "author": "陳昌銘",
    "type": "雕塑",
    "location": "興隆路三段304巷145號",
    "company": "臺北市市場管理處"
  },
  {
    "city": "臺北市",
    "district": "文山區",
    "year": "92",
    "title": "翱翔",
    "author": "李億勳",
    "type": "壁畫鑲嵌",
    "location": "台北市文山區秀明路一段169號／學校後棟二至六樓無障礙坡道牆壁",
    "company": "臺北市立文山特殊教育學校"
  },
  {
    "city": "臺北市",
    "district": "文山區",
    "year": "92",
    "title": "澤龜",
    "author": "曹寶曰",
    "type": "雕塑",
    "location": "台北市文山區新光路2段30號",
    "company": "臺北市立動物園環境組"
  },
  {
    "city": "臺北市",
    "district": "文山區",
    "year": "93",
    "title": "戲林",
    "author": "張可昱",
    "type": "雕塑",
    "location": "台北市文山區景文街32號",
    "company": "台北市立社會教育館：台北市松山區八德路3段25號"
  },
  {
    "city": "臺北市",
    "district": "文山區",
    "year": "93",
    "title": "水龍之舞－重生",
    "author": "鄭明賢",
    "type": "雕塑",
    "location": "台北市文山區樟新街2號／建築物正面右側(靠木新路)1至4樓外牆",
    "company": "臺北市政府消防局"
  },
  {
    "city": "臺北市",
    "district": "文山區",
    "year": "93",
    "title": "繽紛的旅程－ 風‧迎風精靈",
    "author": "陳美華",
    "type": "雕塑、壁畫鑲嵌",
    "location": "台北市文山區新光路2段30號／圓柱入口意象",
    "company": "台北市立動物園"
  },
  {
    "city": "臺北市",
    "district": "文山區",
    "year": "93",
    "title": "繽紛的旅程－ 水‧生命之源（三枝）",
    "author": "陳美華",
    "type": "雕塑",
    "location": "台北市文山區新光路2段30號／生態水池廊道",
    "company": "台北市立動物園"
  },
  {
    "city": "臺北市",
    "district": "文山區",
    "year": "93",
    "title": "繽紛的旅程－ 光‧迎光展翅",
    "author": "陳美華",
    "type": "垂吊造型",
    "location": "台北市文山區新光路2段30號／挑高樓梯間",
    "company": "台北市立動物園"
  },
  {
    "city": "臺北市",
    "district": "文山區",
    "year": "94",
    "title": "飛翔之心",
    "author": "陳嶺碩Cheney、王仁宏",
    "type": "雕塑",
    "location": "台北市文山區景華街150巷21號／活動中心1樓大門口",
    "company": "臺北市景興國民小學"
  },
  {
    "city": "臺北市",
    "district": "文山區",
    "year": "94",
    "title": "內在的火焰",
    "author": "陳慧嶠",
    "type": "雕塑、其他：發光裝置",
    "location": "台北市文山區木柵路四段159巷16號",
    "company": "臺北市政府環境保護局木柵垃圾焚化廠"
  },
  {
    "city": "臺北市",
    "district": "文山區",
    "year": "94",
    "title": "胸有成竹",
    "author": "黃國書",
    "type": "雕塑",
    "location": "台北市文山區木柵路3段189號／服務區",
    "company": "臺北市文山區公所"
  },
  {
    "city": "臺北市",
    "district": "文山區",
    "year": "94",
    "title": "勢如破竹",
    "author": "黃國書",
    "type": "雕塑",
    "location": "台北市文山區木柵路3段189號／服務區",
    "company": "臺北市文山區公所"
  },
  {
    "city": "臺北市",
    "district": "文山區",
    "year": "94",
    "title": "會跳舞的樹",
    "author": "蔡政維",
    "type": "雕塑",
    "location": "台北市文山區秀明路一段169號",
    "company": "臺北市立文山特殊教育學校"
  },
  {
    "city": "臺北市",
    "district": "北投區",
    "year": "89",
    "title": "彩虹的故鄉",
    "author": "林玉慎",
    "type": "",
    "location": "洲美街271號 ",
    "company": "臺北市政府環保局"
  },
  {
    "city": "臺北市",
    "district": "北投區",
    "year": "90",
    "title": "臥虎藏龍",
    "author": "陳正勳",
    "type": "雕塑",
    "location": "台北市關渡路55號／人行步道接木棧橋頭旁",
    "company": "申請-臺北市政府建設局"
  },
  {
    "city": "臺北市",
    "district": "北投區",
    "year": "91",
    "title": "萬鳥歸巢",
    "author": "陳正勳",
    "type": "雕塑",
    "location": "台北市關渡路55號 ／自然解說中心二樓屋簷",
    "company": "申請-臺北市政府建設局"
  },
  {
    "city": "臺北市",
    "district": "北投區",
    "year": "90",
    "title": "生生不息",
    "author": "陳正勳",
    "type": "雕塑",
    "location": "台北市關渡路55號 ／野溪生態區碎石步道側街木棧橋頭",
    "company": "申請-臺北市政府建設局"
  },
  {
    "city": "臺北市",
    "district": "北投區",
    "year": "91",
    "title": "愛心、活力、赤子情",
    "author": "陳麗杏",
    "type": "雕塑",
    "location": "台北市北投區明德路365號／門口廣場",
    "company": "設置-國立台北護理學院"
  },
  {
    "city": "臺北市",
    "district": "北投區",
    "year": "91",
    "title": "鎮",
    "author": "林正仁",
    "type": "雕塑",
    "location": "中央北路四段532號（資料來源為91年文建會出版公共藝術年鑑）",
    "company": "弘盛開發股份有限公司"
  },
  {
    "city": "臺北市",
    "district": "北投區",
    "year": "91",
    "title": "月亮請坐",
    "author": "徐秀美",
    "type": "雕塑、街道傢俱",
    "location": "中央北路四段532號（資料來源為91年文建會出版公共藝術年鑑）／建築東側",
    "company": "弘盛開發股份有限公司"
  },
  {
    "city": "臺北市",
    "district": "北投區",
    "year": "92",
    "title": "逆水行舟",
    "author": "姜憲明",
    "type": "壁畫鑲嵌、壁畫浮雕",
    "location": "台北市北投區明德路365號",
    "company": "設置-國立台北護理學院 執行-國立台北護理學院總務處 聯絡人-蘇敬源/28227101-2550"
  },
  {
    "city": "臺北市",
    "district": "北投區",
    "year": "92",
    "title": "開卷有益",
    "author": "姜憲明",
    "type": "雕塑、壁畫鑲嵌",
    "location": "台北市北投區明德路365號",
    "company": "設置-國立台北護理學院 執行-國立台北護理學院總務處 聯絡人-蘇敬源/28227101-2550"
  },
  {
    "city": "臺北市",
    "district": "北投區",
    "year": "92",
    "title": "大地狩獵",
    "author": "張明風",
    "type": "雕塑、壁畫鑲嵌",
    "location": "北投中山路3-1號／建築物東側亂石砌頁岩表面之擋土牆上 ",
    "company": "設置-臺北市政府原住民事務委員會 "
  },
  {
    "city": "臺北市",
    "district": "北投區",
    "year": "92",
    "title": "族群拼織",
    "author": "張明風",
    "type": "地坪鑲嵌",
    "location": "北投中山路3-1號／以各族織布圖騰交錯於本館入口地坪",
    "company": "設置-臺北市政府原住民事務委員會                         "
  },
  {
    "city": "臺北市",
    "district": "北投區",
    "year": "92",
    "title": "反思",
    "author": "張光秦",
    "type": "雕塑",
    "location": "北投區公館路198號／前廣場",
    "company": "臺北市北投區公所"
  },
  {
    "city": "臺北市",
    "district": "北投區",
    "year": "92",
    "title": "HELLO秀山花(秀山花與琥珀椅)",
    "author": "黃位政",
    "type": "雕塑、街道傢俱、其他：發光裝置",
    "location": "台北市北投區秀山路、中和街口，里民活動中心：中和街485號",
    "company": "臺北市北投區公所,臺北市政府警察局,臺北市政府消防局,台北市立圖書館                  "
  },
  {
    "city": "臺北市",
    "district": "北投區",
    "year": "92",
    "title": "關山渡水‧旭日曉月－飛行",
    "author": "董振平",
    "type": "雕塑",
    "location": "台北市北投區中央北路四段581號／活動中心牌樓正前方老榕樹左側(摘星樓一樓)",
    "company": "臺北市北投區關渡國民小學"
  },
  {
    "city": "臺北市",
    "district": "北投區",
    "year": "92",
    "title": "摘星",
    "author": "董振平",
    "type": "雕塑",
    "location": "台北市北投區中央北路四段581號／牌樓左側上方三角窗內(摘星樓二樓)",
    "company": "臺北市北投區關渡國民小學"
  },
  {
    "city": "臺北市",
    "district": "北投區",
    "year": "92",
    "title": "翱翔",
    "author": "董振平",
    "type": "雕塑",
    "location": "台北市北投區中央北路四段581號／牌樓前後及頂端、活動中心面對中央北路牆面及正門意像",
    "company": "臺北市北投區關渡國民小學"
  },
  {
    "city": "臺北市",
    "district": "北投區",
    "year": "92",
    "title": "旭日",
    "author": "董振平",
    "type": "雕塑",
    "location": "台北市北投區中央北路四段581號／牌樓之頂層右面上方(摘星樓二樓頂)",
    "company": "臺北市北投區關渡國民小學"
  },
  {
    "city": "臺北市",
    "district": "北投區",
    "year": "92",
    "title": "初始",
    "author": "董振平",
    "type": "雕塑",
    "location": "台北市北投區中央北路四段581號／牌樓、橫樑需求部分",
    "company": "臺北市北投區關渡國民小學"
  },
  {
    "city": "臺北市",
    "district": "北投區",
    "year": "92",
    "title": "經緯",
    "author": "董振平",
    "type": "雕塑",
    "location": "活動中心橫樑上方(摘星樓三樓)",
    "company": "臺北市北投區關渡國民小學"
  },
  {
    "city": "臺北市",
    "district": "北投區",
    "year": "92",
    "title": "天成",
    "author": "董振平",
    "type": "雕塑",
    "location": "台北市北投區中央北路四段581號／活動中心二樓走廊挑空處(摘星樓二樓)",
    "company": "臺北市北投區關渡國民小學"
  },
  {
    "city": "臺北市",
    "district": "北投區",
    "year": "93",
    "title": "永恆的樂章",
    "author": "",
    "type": "雕塑",
    "location": "台北市北投區致遠三路158號／建物立面東西兩側正面花台上方之外牆",
    "company": "台北市政府工務局新建工程處"
  },
  {
    "city": "臺北市",
    "district": "北投區",
    "year": "93",
    "title": "火焰之舞",
    "author": "",
    "type": "雕塑",
    "location": "台北市北投區洲美街271號／台北市政府環境保護局北投垃圾焚化廠回饋設施公園中庭廣場",
    "company": "臺北市政府環境保護局北投垃圾焚化廠"
  },
  {
    "city": "臺北市",
    "district": "北投區",
    "year": "94",
    "title": "向量",
    "author": "林政權／北院建築師事務所",
    "type": "雕塑",
    "location": "台北市北投區文化三路3號",
    "company": "台北市北投區公所：台北市北投區新市街30號4樓"
  },
  {
    "city": "臺北市",
    "district": "北投區",
    "year": "94",
    "title": "手舞足蹈",
    "author": "李哲凰",
    "type": "雕塑",
    "location": "石牌路一段39巷100號／榕樹廣場",
    "company": "臺北市立體育處"
  },
  {
    "city": "臺北市",
    "district": "北投區",
    "year": "94",
    "title": "棋逢敵手",
    "author": "林仁信",
    "type": "雕塑",
    "location": "石牌路一段39巷100號／一、二樓層樓梯底部及牆面",
    "company": "設置機關:臺北市立體育處 代辦機關:臺北市立師範學院"
  },
  {
    "city": "臺北市",
    "district": "北投區",
    "year": "94",
    "title": "精實名言",
    "author": "",
    "type": "其他：文字及圖示印製於玻璃上",
    "location": "台北市中央北路2段70號 志清圖書館1樓大廳",
    "company": "政治作戰學校志清圖書館"
  },
  {
    "city": "臺北市",
    "district": "北投區",
    "year": "94",
    "title": "鏗鏘筆挺",
    "author": "",
    "type": "雕塑",
    "location": "台北市中央北路2段70號 志清圖書館1樓大廳",
    "company": "政治作戰學校志清圖書館"
  },
  {
    "city": "臺北市",
    "district": "北投區",
    "year": "94",
    "title": "憩",
    "author": "劉時棟",
    "type": "街道傢俱",
    "location": "北投丹鳳山電視轉播站：查無地址資料／照明淨寺（崇仰七路）後方山頂上",
    "company": "臺北市政府新聞處"
  },
  {
    "city": "臺北市",
    "district": "松山區",
    "year": "90",
    "title": "韻律 Rhythm",
    "author": "郭清治",
    "type": "雕塑",
    "location": "市民大道、基隆路口中央分隔島",
    "company": "臺北市政府工務局新建工程處：台北市信義區市府路一號五樓南區"
  },
  {
    "city": "臺北市",
    "district": "松山區",
    "year": "90",
    "title": "女武神，時間廊",
    "author": "董振平",
    "type": "雕塑",
    "location": "市民大道、敦化北路口西側中央分隔島",
    "company": "臺北市政府工務局新建工程處：台北市信義區市府路一號五樓南區"
  },
  {
    "city": "臺北市",
    "district": "松山區",
    "year": "91",
    "title": "展翅高飛－飛翔人形",
    "author": "",
    "type": "雕塑、垂吊造型",
    "location": "台北市八德路4段101號／圓心中庭",
    "company": "臺北市立中崙高級中學"
  },
  {
    "city": "臺北市",
    "district": "松山區",
    "year": "91",
    "title": "展翅高飛－彩繪百鳥",
    "author": "",
    "type": "其他：玻璃彩繪",
    "location": "台北市八德路4段101號／圓心中庭",
    "company": "臺北市立中崙高級中學"
  },
  {
    "city": "臺北市",
    "district": "松山區",
    "year": "91",
    "title": "展翅高飛－大台北地形圖",
    "author": "",
    "type": "地坪鑲嵌",
    "location": "台北市八德路4段101號／圓心中庭",
    "company": "臺北市立中崙高級中學"
  },
  {
    "city": "臺北市",
    "district": "松山區",
    "year": "91",
    "title": "樹的組曲－快樂成長",
    "author": "趙國宗",
    "type": "壁畫彩繪、壁畫浮雕",
    "location": "台北市八德路4段101號／中崙廣場左側旋轉樓梯旁",
    "company": "臺北市立中崙高級中學"
  },
  {
    "city": "臺北市",
    "district": "松山區",
    "year": "91",
    "title": "樹的組曲－培育意象（6件）",
    "author": "黃承令",
    "type": "雕塑",
    "location": "台北市八德路4段101號／校門廣場右側",
    "company": "臺北市立中崙高級中學"
  },
  {
    "city": "臺北市",
    "district": "松山區",
    "year": "91",
    "title": "樹的組曲－豐收喜悅（3件)",
    "author": "趙國宗",
    "type": "雕塑",
    "location": "台北市八德路4段101號／中崙廣場",
    "company": "臺北市立中崙高級中學"
  },
  {
    "city": "臺北市",
    "district": "松山區",
    "year": "94",
    "title": "圓融",
    "author": "張清淵",
    "type": "壁畫鑲嵌",
    "location": "台北市民權東路四段200號／游泳池外牆兩側",
    "company": "台北市民權國民小學 謝發銓主任 (T)2765-2327#31 (F)2766-2391"
  },
  {
    "city": "臺北市",
    "district": "信義區",
    "year": "90",
    "title": "Posse to be able： B",
    "author": "田邊武",
    "type": "雕塑",
    "location": "台北市松仁路三號中油大樓／西側前庭花園水池中，六個圓形平台中靠北邊的三個平台上",
    "company": "設置-中國石油股份有限公司"
  },
  {
    "city": "臺北市",
    "district": "信義區",
    "year": "90",
    "title": "Posse to be able： A",
    "author": "田邊武",
    "type": "雕塑",
    "location": "台北市松仁路三號中油大樓／松高路及松仁路轉角人行道內側、",
    "company": "設置-中國石油股份有限公司"
  },
  {
    "city": "臺北市",
    "district": "信義區",
    "year": "91",
    "title": "城市候鳥",
    "author": "蔡政維",
    "type": "雕塑",
    "location": "松仁路2號地下室",
    "company": "查無資料"
  },
  {
    "city": "臺北市",
    "district": "信義區",
    "year": "92",
    "title": "海闊天空",
    "author": "郭大維",
    "type": "其他：彩繪玻璃貼於壁面",
    "location": "台北市信義區松仁路95巷20號／活動中心牆面",
    "company": "臺北市信義區博愛國民小學 聯絡人-林文亮/0227296311"
  },
  {
    "city": "臺北市",
    "district": "信義區",
    "year": "94",
    "title": "扣",
    "author": "鄭聰文",
    "type": "雕塑",
    "location": "台北市松德路168巷內 大樓左前方草坪上",
    "company": "中華電信股份有限公司北區分公司總務處周峰男 葉崇德(T)2344-3346(F)2351-5107臺北市信義路1段21-2號"
  },
  {
    "city": "臺北市",
    "district": "南港區",
    "year": "90",
    "title": "後浪、前浪",
    "author": "李國嘉",
    "type": "壁畫鑲嵌",
    "location": "興中路 29 號／南港高級工業職業學校舊集合場",
    "company": "臺北市立南港高級工業職業學校"
  },
  {
    "city": "臺北市",
    "district": "南港區",
    "year": "92",
    "title": "「孕育化成」組曲－育成之柱",
    "author": "李光裕",
    "type": "雕塑",
    "location": "台北市南港區重陽路366號／圍牆東北區",
    "company": "主辦-臺北市政府教育局 承辦-臺北市育成高級中學籌備處 聯絡人-賴興雷/26530475"
  },
  {
    "city": "臺北市",
    "district": "南港區",
    "year": "92",
    "title": "「孕育化成」組曲－允文",
    "author": "李光裕",
    "type": "壁畫浮雕",
    "location": "台北市南港區重陽路366號／前川堂區壁面",
    "company": "主辦-臺北市政府教育局 承辦-臺北市育成高級中學籌備處 聯絡人-賴興雷/26530475"
  },
  {
    "city": "臺北市",
    "district": "南港區",
    "year": "92",
    "title": "「孕育化成」組曲－允武",
    "author": "李光裕",
    "type": "壁畫浮雕",
    "location": "台北市南港區重陽路366號／前川堂區壁面",
    "company": "主辦-臺北市政府教育局 承辦-臺北市育成高級中學籌備處 聯絡人-賴興雷/26530475"
  },
  {
    "city": "臺北市",
    "district": "南港區",
    "year": "92",
    "title": "「孕育化成」組曲－育成共榮",
    "author": "李光裕",
    "type": "壁畫浮雕",
    "location": "台北市南港區重陽路366號／校門口",
    "company": "主辦-臺北市政府教育局 承辦-臺北市育成高級中學籌備處 聯絡人-賴興雷/26530475"
  },
  {
    "city": "臺北市",
    "district": "南港區",
    "year": "92",
    "title": "每天心中開出許多花",
    "author": "李國嘉",
    "type": "垂吊造型、其他：發光裝置",
    "location": "台北市南港區興中路 29 號／圖資大樓走廊",
    "company": "臺北市南港高級工業職業學校／許秀琴組長02-27825432#1505"
  },
  {
    "city": "臺北市",
    "district": "南港區",
    "year": "93",
    "title": "思想的轉動 ",
    "author": "湯尼‧克雷格",
    "type": "雕塑",
    "location": "三重路19-2號／南港軟體科學園區中庭廣場",
    "company": "經濟部工業局：台北市信義區信義路三段41號5樓"
  },
  {
    "city": "臺北市",
    "district": "南港區",
    "year": "93",
    "title": "彩虹的誕生 ",
    "author": "",
    "type": "雕塑、水景",
    "location": "三重路19-2號／南港軟體科學園區中庭廣場",
    "company": "經濟部工業局：台北市信義區信義路三段41號5樓"
  },
  {
    "city": "臺北市",
    "district": "南港區",
    "year": "93",
    "title": "門 ",
    "author": "瑪塔‧潘",
    "type": "雕塑",
    "location": "三重路19-2號／南港軟體科學園區中庭廣場",
    "company": "經濟部工業局：台北市信義區信義路三段41號5樓"
  },
  {
    "city": "臺北市",
    "district": "南港區",
    "year": "93",
    "title": "列柱噴泉 ",
    "author": "",
    "type": "雕塑、水景",
    "location": "三重路19-2號／南港軟體科學園區中庭階梯水景",
    "company": "經濟部工業局：台北市信義區信義路三段41號5樓"
  },
  {
    "city": "臺北市",
    "district": "南港區",
    "year": "93",
    "title": "有逗點、句點的風景",
    "author": "莊普",
    "type": "",
    "location": "三重路19-2號／南港軟體科學園區中庭廣場",
    "company": "經濟部工業局：台北市信義區信義路三段41號5樓"
  },
  {
    "city": "臺北市",
    "district": "南港區",
    "year": "93",
    "title": "時間的移轉",
    "author": "袁廣鳴",
    "type": "其他：光柵片門片",
    "location": "三重路19-2號／南港軟體科學園區F、H棟入口大門上",
    "company": "經濟部工業局：台北市信義區信義路三段41號5樓"
  },
  {
    "city": "臺北市",
    "district": "南港區",
    "year": "93",
    "title": "演奏一曲",
    "author": "",
    "type": "其他：機械平面裝置",
    "location": "三重路及園區街／南港軟體科學園區H棟大廳牆面",
    "company": "經濟部工業局：台北市信義區信義路三段41號5樓"
  },
  {
    "city": "臺北市",
    "district": "南港區",
    "year": "93",
    "title": "光體",
    "author": "陶亞倫",
    "type": "其他：顯微鏡及多媒體裝置",
    "location": "三重路19-2號／南港軟體科學園區F棟大廳牆面",
    "company": "經濟部工業局：台北市信義區信義路三段41號5樓"
  },
  {
    "city": "臺北市",
    "district": "南港區",
    "year": "93",
    "title": "化境",
    "author": "林書民",
    "type": "其他：雷射立體影像",
    "location": "三重路19-2號／南港軟體科學園區H棟二樓",
    "company": "經濟部工業局 台北市政府都市發展局／張曉華：2725-8281"
  },
  {
    "city": "臺北市",
    "district": "萬華區",
    "year": "91",
    "title": "雙園筆竹風情",
    "author": "王秀杞",
    "type": "雕塑",
    "location": "興義街2號／校門口右側人行道",
    "company": "雙園國民中學"
  },
  {
    "city": "臺北市",
    "district": "萬華區",
    "year": "91",
    "title": "舞",
    "author": "黃文慶",
    "type": "壁畫鑲嵌",
    "location": "興義街2號／綜合大樓南面牆",
    "company": "雙園國民中學"
  },
  {
    "city": "臺北市",
    "district": "萬華區",
    "year": "92",
    "title": "福星高照",
    "author": "李昀珊",
    "type": "雕塑",
    "location": "中華路一段66號／東側校門口地坪",
    "company": "臺北市萬華區福星國民小學"
  },
  {
    "city": "臺北市",
    "district": "萬華區",
    "year": "92",
    "title": "琴韻悠颺(一件加銅音符五座)",
    "author": "李昀珊",
    "type": "雕塑、街道傢俱",
    "location": "中華路一段66號／都市櫥窗前行道樹下",
    "company": "臺北市萬華區福星國民小學"
  },
  {
    "city": "臺北市",
    "district": "萬華區",
    "year": "93",
    "title": "如魚得水 立體魚拓畫",
    "author": "周國龍",
    "type": "壁畫彩繪",
    "location": "莒光路315號",
    "company": "臺北市萬華區雙園國小"
  },
  {
    "city": "臺北市",
    "district": "信義區",
    "year": "80",
    "title": "站在圓球上與爪子上的野兔",
    "author": "貝瑞‧福萊納甘",
    "type": "雕塑",
    "location": "台北市松仁路三號中油大樓／入口戶外廣場",
    "company": "設置-中國石油股份有限公司"
  },
  {
    "city": "臺北市",
    "district": "文山區",
    "year": "95",
    "title": "妳儂我儂---印象朋友",
    "author": "",
    "type": "壁畫鑲嵌",
    "location": "臺北市立動物園 臺北市文山區新光路二段30號",
    "company": "臺北市立動物園"
  },
  {
    "city": "臺北市",
    "district": "內湖區",
    "year": "92",
    "title": "風中的水漂(共5座)",
    "author": "宋璽德",
    "type": "雕塑、其他：機械裝置",
    "location": "內湖污水處理廠親水公園：台北市內湖區舊宗路2段2號",
    "company": "－"
  },
  {
    "city": "臺北市",
    "district": "大同區",
    "year": "95",
    "title": "一種接觸的美學 ",
    "author": "顏名宏",
    "type": "壁畫鑲嵌",
    "location": "台北市酒泉街235號／入口廣場正立牆面",
    "company": "臺北市政府工務局衛生下水道工程處"
  },
  {
    "city": "臺北市",
    "district": "大同區",
    "year": "95",
    "title": "聽見水聲",
    "author": "劉國滄",
    "type": "雕塑、其他：管線",
    "location": "台北市酒泉街235號／附設休閒運動公園之服務台",
    "company": "臺北市政府工務局衛生下水道工程處"
  },
  {
    "city": "臺北市",
    "district": "大同區",
    "year": "95",
    "title": "泳池的聯想",
    "author": "袁廣鳴",
    "type": "其他：影像裝置",
    "location": "台北市酒泉街235號／廠外大廳入口",
    "company": "臺北市政府工務局衛生下水道工程處"
  },
  {
    "city": "臺北市",
    "district": "大同區",
    "year": "95",
    "title": "大地重現",
    "author": "",
    "type": "其他：人行步道",
    "location": "台北市酒泉街235號／西端天橋跨越環河北路",
    "company": "設置-臺北市政府工務局衛生下水道工程處 執行-臺北市政府文化局"
  },
  {
    "city": "臺北市",
    "district": "大安區",
    "year": "95",
    "title": "第一主題區:訊息的殿堂",
    "author": "郭清治",
    "type": "雕塑",
    "location": "臺北市愛國東路35號",
    "company": "中華電信行動通信分公司"
  },
  {
    "city": "臺北市",
    "district": "大安區",
    "year": "95",
    "title": "第二主題區:行通蛟龍",
    "author": "林文德",
    "type": "雕塑",
    "location": "臺北市愛國東路35號",
    "company": "中華電信行動通信分公司"
  },
  {
    "city": "臺北市",
    "district": "大安區",
    "year": "95",
    "title": "第三主題區:心橋",
    "author": "林正仁",
    "type": "雕塑",
    "location": "臺北市愛國東路35號",
    "company": "中華電信行動通信分公司"
  },
  {
    "city": "臺北市",
    "district": "中山區",
    "year": "95",
    "title": "水岸上的童話王國 1.小水滴",
    "author": "張永村",
    "type": "雕塑",
    "location": "台北市中山區樂群二路266巷99號",
    "company": "台北市中山區濱江國民小學"
  },
  {
    "city": "臺北市",
    "district": "中山區",
    "year": "95",
    "title": "水岸上的童話王國 2.水波遊戲場",
    "author": "張永村",
    "type": "雕塑",
    "location": "台北市中山區樂群二路266巷99號",
    "company": "台北市中山區濱江國民小學"
  },
  {
    "city": "臺北市",
    "district": "中山區",
    "year": "95",
    "title": "水岸上的童話王國 3.種子遊戲場",
    "author": "張永村",
    "type": "雕塑",
    "location": "台北市中山區樂群二路266巷99號",
    "company": "台北市中山區濱江國民小學"
  },
  {
    "city": "臺北市",
    "district": "信義區",
    "year": "90",
    "title": "大橢圓2001",
    "author": "索托，赫穌斯‧拉斐爾",
    "type": "垂吊造型",
    "location": "台北市松仁路三號中油大樓／中庭大廳",
    "company": "設置-中國石油股份有限公司"
  },
  {
    "city": "臺北市",
    "district": "中山區",
    "year": "95",
    "title": "種籽",
    "author": "陳健",
    "type": "",
    "location": "臺北市中山區 樂群二路262號",
    "company": "臺北市立濱江國民中學"
  },
  {
    "city": "臺北市",
    "district": "南港區",
    "year": "95",
    "title": "生命的樂章",
    "author": "郭清治",
    "type": "雕塑",
    "location": "台北市南港區研究院路二段128號",
    "company": "中央研究院"
  },
  {
    "city": "臺北市",
    "district": "信義區",
    "year": "97",
    "title": "LOVE 台北之愛 台灣之愛",
    "author": "羅伯特．印第安那",
    "type": "雕塑",
    "location": "台北市市府路45號（大樓前廣場）",
    "company": "台北金融大樓股份有限公司"
  },
  {
    "city": "臺北市",
    "district": "文山區",
    "year": "97",
    "title": "??",
    "author": "郭弘坤",
    "type": "街道傢俱",
    "location": "臺北市新光路2段30號（鳥園廣場）",
    "company": "臺北市立動物園"
  },
  {
    "city": "臺北市",
    "district": "文山區",
    "year": "97",
    "title": "渾然天成",
    "author": "",
    "type": "地坪鑲嵌",
    "location": "臺北市文山區116新光路二段30號（動物園入口內廣場）",
    "company": "臺北市立動物園"
  },
  {
    "city": "臺北市",
    "district": "文山區",
    "year": "97",
    "title": "現代諾亞方舟",
    "author": "",
    "type": "壁畫鑲嵌",
    "location": "臺北市文山區116新光路二段30號（兒童動物園區前）",
    "company": "臺北市立動物園"
  },
  {
    "city": "臺北市",
    "district": "北投區",
    "year": "97",
    "title": "約拿的天空",
    "author": "劉世芬",
    "type": "地坪鑲嵌",
    "location": "台北市北投區石牌路二段201號（榮民總醫院西南側門診區、地下停車場與中正樓間之人行主要通路）",
    "company": "行政院國軍退除役官兵輔導委員會台北榮民總醫院"
  },
  {
    "city": "臺北市",
    "district": "北投區",
    "year": "97",
    "title": "音階",
    "author": "天工開物股份有限公司",
    "type": "",
    "location": "臺北市北投區榮華里榮華二路十九巷八弄十號",
    "company": "臺北市立圖書館"
  },
  {
    "city": "臺北市",
    "district": "北投區",
    "year": "97",
    "title": "藏寶石",
    "author": "李岳庚",
    "type": "雕塑",
    "location": "臺北市北投區光明路251號",
    "company": "臺北市立圖書館"
  },
  {
    "city": "臺北市",
    "district": "北投區",
    "year": "97",
    "title": "生命之華",
    "author": "圓就是藝術創策股份有限公司",
    "type": "雕塑",
    "location": "國立陽明大學校門口入口前方左側空地",
    "company": "國立陽明大學"
  },
  {
    "city": "臺北市",
    "district": "北投區",
    "year": "97",
    "title": "春風",
    "author": "圓就是藝術創策股份有限公司",
    "type": "雕塑",
    "location": "國立陽明大學校門口入口大道底端右側與本校圖書資訊大樓邊草地",
    "company": "國立陽明大學"
  },
  {
    "city": "臺北市",
    "district": "信義區",
    "year": "97",
    "title": "NUMBERS 數字",
    "author": "羅伯特．印第安那",
    "type": "雕塑",
    "location": "台北市市府路45號（大廳）",
    "company": "台北金融大樓股份有限公司"
  },
  {
    "city": "臺北市",
    "district": "信義區",
    "year": "97",
    "title": "星月交輝",
    "author": "",
    "type": "水景",
    "location": "台北市市府路45號（松廉路上人行道）",
    "company": "台北金融大樓股份有限公司"
  },
  {
    "city": "臺北市",
    "district": "信義區",
    "year": "97",
    "title": "龍躍雲端 ",
    "author": "",
    "type": "水景",
    "location": "台北市市府路45號（松廉路上人行道）",
    "company": "台北金融大樓股份有限公司"
  },
  {
    "city": "臺北市",
    "district": "信義區",
    "year": "97",
    "title": "都市交響曲",
    "author": "吉爾‧瓦塵",
    "type": "雕塑",
    "location": "台北市市府路45號（信義線捷運出口區）",
    "company": "台北金融大樓股份有限公司"
  },
  {
    "city": "臺北市",
    "district": "信義區",
    "year": "97",
    "title": "陰與陽的對話 ",
    "author": "蕾蓓卡‧洪",
    "type": "雕塑",
    "location": "台北市市府路45號（大廳）",
    "company": ""
  },
  {
    "city": "臺北市",
    "district": "信義區",
    "year": "97",
    "title": "印信 Seal",
    "author": "張義",
    "type": "地坪鑲嵌",
    "location": "台北市市府路45號（大廳）",
    "company": "台北金融大樓股份有限公司"
  },
  {
    "city": "臺北市",
    "district": "信義區",
    "year": "97",
    "title": "天地之間",
    "author": "亞利安 莫斯可維奇",
    "type": "街道傢俱",
    "location": "台北市市府路45號（靠世貿二館之人行道上）",
    "company": "台北金融大樓股份有限公司"
  },
  {
    "city": "臺北市",
    "district": "信義區",
    "year": "97",
    "title": "世界之環",
    "author": "莊普",
    "type": "地坪鑲嵌",
    "location": "台北市市府路45號（4F都會廣場）",
    "company": "台北金融大樓股份有限公司"
  },
  {
    "city": "臺北市",
    "district": "士林區",
    "year": "97",
    "title": "無為 / 無不為",
    "author": "和泉正敏",
    "type": "雕塑",
    "location": "台北市士林區至善路2段221號 國立故宮博物院（正館2樓花台）",
    "company": "國立故宮博物院"
  },
  {
    "city": "臺北市",
    "district": "士林區",
    "year": "97",
    "title": "知識分享",
    "author": "",
    "type": "雕塑、壁畫鑲嵌、壁畫浮雕",
    "location": "台北市士林區延平北路5段136巷1號(大門右側牆)",
    "company": "臺北市立圖書館"
  },
  {
    "city": "臺北市",
    "district": "士林區",
    "year": "97",
    "title": "福聚",
    "author": "",
    "type": "雕塑",
    "location": "台北市士林區延平北路5段136巷1號(大門左側)",
    "company": "臺北市立圖書館"
  },
  {
    "city": "臺北市",
    "district": "士林區",
    "year": "97",
    "title": "串流",
    "author": "",
    "type": "雕塑、壁畫鑲嵌、壁畫浮雕",
    "location": "台北市士林區延平北路5段136巷1號(大廳正面)",
    "company": "臺北市立圖書館"
  },
  {
    "city": "臺北市",
    "district": "大同區",
    "year": "95",
    "title": "引導一段無法到達的旅程─昨日重現",
    "author": "吳鼎武‧瓦歷斯",
    "type": "地坪鑲嵌",
    "location": "台北市大同區酒泉街191號前人行道",
    "company": "臺北市政府工務局衛生下水道工程處"
  },
  {
    "city": "臺北市",
    "district": "大同區",
    "year": "95",
    "title": "引導一段無法到達的旅程─邊緣之上",
    "author": "吳鼎武‧瓦歷斯",
    "type": "街道傢俱",
    "location": "啟聰學校公車站",
    "company": "臺北市政府工務局衛生下水道工程處"
  },
  {
    "city": "臺北市",
    "district": "大同區",
    "year": "95",
    "title": "引導一段無法到達的旅程─望見未來",
    "author": "吳鼎武‧瓦歷斯",
    "type": "地坪鑲嵌",
    "location": "台北市大同區保安宮公車站",
    "company": "臺北市政府工務局衛生下水道工程處"
  },
  {
    "city": "臺北市",
    "district": "大同區",
    "year": "95",
    "title": "我們在天空飛翔",
    "author": "",
    "type": "壁畫鑲嵌",
    "location": "台北市大同區慶北路三段320號／台北市立啟聰學校",
    "company": "臺北市政府工務局衛生下水道工程處"
  },
  {
    "city": "臺北市",
    "district": "大同區",
    "year": "96",
    "title": "希望的力量 ",
    "author": "葉怡利",
    "type": "雕塑",
    "location": "台北數位產業園區(前身為承德勞動文化園區-勞工公園)",
    "company": "臺北市政府勞工局勞工教育中心"
  },
  {
    "city": "臺北市",
    "district": "大同區",
    "year": "97",
    "title": "聚水成淵",
    "author": "林舜龍",
    "type": "雕塑",
    "location": "台北市大同區承德路二段235號/校門口",
    "company": "臺北市立成淵高級中學"
  },
  {
    "city": "臺北市",
    "district": "大同區",
    "year": "97",
    "title": "游於藝者",
    "author": "林舜龍",
    "type": "雕塑",
    "location": "台北市大同區承德路二段235號/綜合教學大樓門口",
    "company": "臺北市立成淵高級中學"
  },
  {
    "city": "臺北市",
    "district": "大同區",
    "year": "97",
    "title": "豆豆座椅",
    "author": "耕者有其田國際藝術有限公司",
    "type": "雕塑、地坪鑲嵌",
    "location": "台北市大同區大橋市場-環河南路與延平北路間台北大橋下",
    "company": "臺北市市場處"
  },
  {
    "city": "臺北市",
    "district": "大安區",
    "year": "96",
    "title": "泳出",
    "author": "李佩珊老師帶領學生共同創作",
    "type": "壁畫鑲嵌",
    "location": "台北市大安區臥龍街129號大安國小游泳池側邊",
    "company": "臺北市大安區大安國民小學"
  },
  {
    "city": "臺北市",
    "district": "中山區",
    "year": "96",
    "title": "行雲",
    "author": "鄭明賢",
    "type": "雕塑、其他：發光裝置",
    "location": "台北市中山區中山北路2段93巷23、40號間永盛公園內",
    "company": "臺北市停車管理處"
  },
  {
    "city": "臺北市",
    "district": "中正區",
    "year": "96",
    "title": "抽絲剝繭、和平訊息",
    "author": "達達美術研究開發有限公司",
    "type": "壁畫浮雕、其他：不鏽鋼板壁飾",
    "location": "台北市中正區公園路15號",
    "company": "臺北市政府工務局新建工程處"
  },
  {
    "city": "臺北市",
    "district": "中正區",
    "year": "96",
    "title": "原東門游泳池顏水龍先生浮雕（創作於1969）",
    "author": "顏水龍",
    "type": "壁畫浮雕",
    "location": "台北市中正區信義路一號",
    "company": "臺北市政府工務局新建工程處"
  },
  {
    "city": "臺北市",
    "district": "內湖區",
    "year": "96",
    "title": "燈亮了",
    "author": "",
    "type": "雕塑、其他：發光裝置",
    "location": "台北市內湖區舊宗段17地號土地（變電所大門前方、變電所基地南側）",
    "company": "台灣電力股份有限公司"
  },
  {
    "city": "臺北市",
    "district": "內湖區",
    "year": "97",
    "title": "明園「瑞鶴美術館」",
    "author": "朱嘉樺",
    "type": "其他：景觀植栽",
    "location": "台北市內湖區國防大學國防醫學院三軍總醫院正子造影掃瞄中心入口廣場",
    "company": "國防大學國防醫學院三軍總醫院"
  },
  {
    "city": "臺北市",
    "district": "文山區",
    "year": "96",
    "title": "「奇幻世界」系列─光之精靈",
    "author": "吳建福",
    "type": "雕塑",
    "location": "台北市文山區秀明路一段169號＼台北市立文山特殊教育學校（後棟二樓川堂）",
    "company": "臺北市立文山特殊教育學校"
  },
  {
    "city": "臺北市",
    "district": "文山區",
    "year": "96",
    "title": "「奇幻世界」系列─水之精靈",
    "author": "吳建福",
    "type": "雕塑",
    "location": "台北市文山區秀明路一段169號＼台北市立文山特殊教育學校（右側門中庭噴水區）",
    "company": "臺北市立文山特殊教育學校"
  },
  {
    "city": "臺北市",
    "district": "文山區",
    "year": "96",
    "title": "「奇幻世界」系列─形之精靈",
    "author": "吳建福",
    "type": "雕塑",
    "location": "台北市文山區秀明路一段169號＼台北市立文山特殊教育學校（後花園人行步道區）",
    "company": "臺北市立文山特殊教育學校"
  },
  {
    "city": "臺北市",
    "district": "文山區",
    "year": "96",
    "title": "重返伊甸園-1",
    "author": "李國嘉",
    "type": "壁畫鑲嵌",
    "location": "台北市文山區116新光路二段30號（捷運動物園站出口至動物園售票口間之園界圍牆）",
    "company": "臺北市立動物園"
  },
  {
    "city": "臺北市",
    "district": "文山區",
    "year": "96",
    "title": "重返伊甸園-2",
    "author": "李國嘉",
    "type": "地坪鑲嵌",
    "location": "台北市文山區116新光路二段30號（捷運動物園站出口至動物園售票口間之園界圍牆）",
    "company": "臺北市立動物園"
  },
  {
    "city": "臺北市",
    "district": "文山區",
    "year": "96",
    "title": "重返伊甸園-3",
    "author": "李國嘉",
    "type": "地坪鑲嵌",
    "location": "臺北市文山區116新光路二段30號（動物園出入口處中央主牆面）",
    "company": "臺北市立動物園"
  },
  {
    "city": "臺北市",
    "district": "士林區",
    "year": "98",
    "title": "欒樹故事",
    "author": "王存武",
    "type": "雕塑、地坪鑲嵌",
    "location": "台北市士林區忠誠路2段51號  台北市立蘭雅國中左側人行道",
    "company": "臺北市立蘭雅國中"
  },
  {
    "city": "臺北市",
    "district": "大同區",
    "year": "95",
    "title": "引導一段無法到達的旅程─接近水面",
    "author": "吳鼎武‧瓦歷斯",
    "type": "",
    "location": "大同區老師里活動中心(慶昌橋下)",
    "company": "臺北市政府工務局衛生下水道工程處"
  },
  {
    "city": "臺北市",
    "district": "大同區",
    "year": "98",
    "title": "夢想輪轉",
    "author": "李岳庚",
    "type": "其他：不銹鋼",
    "location": "台北市大同區大龍街136號(立體停車場牆面壁畫及管理員室上方)",
    "company": "臺北市停車管理工程處"
  },
  {
    "city": "臺北市",
    "district": "大同區",
    "year": "2009",
    "title": "學步 Step by Step",
    "author": "",
    "type": "街道傢俱、其他：地景裝置",
    "location": "台北市大同區寧夏路35號  新校舍中庭(中庭區域、1樓走廊紅磚柱面)",
    "company": "臺北市大同區蓬萊國民小學"
  },
  {
    "city": "臺北市",
    "district": "大同區",
    "year": "2009",
    "title": "過往凝結-我的家園  編織夢想-我的家",
    "author": "褚瑞基",
    "type": "工藝、壁畫浮雕",
    "location": "台北市大同區寧夏路35號  連接新舊大門帶狀區域(寧夏路靠民生西路段圍牆、通學巷圍牆)",
    "company": "臺北市大同區蓬萊國民小學"
  },
  {
    "city": "臺北市",
    "district": "大同區",
    "year": "98",
    "title": "對話",
    "author": "湯皇珍",
    "type": "其他：牆面體",
    "location": "台北市大同區寧夏路35號  新校舍穿堂立面(太原路穿堂)",
    "company": "臺北市大同區蓬萊國民小學"
  },
  {
    "city": "臺北市",
    "district": "中山區",
    "year": "97",
    "title": "愛心 大隊接力 武術表演 下課時間 弄獅",
    "author": "",
    "type": "其他：陶板畫",
    "location": "台北中山區長春路116號 吉林國小活動中心無障礙電梯內部",
    "company": "臺北市中山區吉林國民小學"
  },
  {
    "city": "臺北市",
    "district": "中山區",
    "year": "98",
    "title": "繽紛人生",
    "author": "林昭慶",
    "type": "雕塑",
    "location": "台北市中山區建國北路三段39號榮星公園入口廣場左側草地",
    "company": "臺北市停車管理工程處"
  },
  {
    "city": "臺北市",
    "district": "中山區",
    "year": "98",
    "title": "獨一無二",
    "author": "徐洵蔚",
    "type": "壁畫鑲嵌",
    "location": "台北市中山區吉林路15號長安國民小學舊大樓北川堂壁面",
    "company": "臺北市中山區長安國民小學"
  },
  {
    "city": "臺北市",
    "district": "中山區",
    "year": "98",
    "title": "親愛的˙我變大了",
    "author": "陶亞倫",
    "type": "其他：複合媒材",
    "location": "臺北市吉林路15號長安國民小學舊行政大樓一樓大門",
    "company": "臺北市中山區長安國民小學"
  },
  {
    "city": "臺北市",
    "district": "中正區",
    "year": "98",
    "title": "榮耀時空--歷史之心",
    "author": "林昭慶",
    "type": "其他：銅雕結合多媒體",
    "location": "台北市中正區忠孝東路一段7號 內政部警政署保安警察第六總隊",
    "company": "內政部警政署保安第六總隊"
  },
  {
    "city": "臺北市",
    "district": "中正區",
    "year": "98",
    "title": "榮耀時空-- 翔",
    "author": "林昭慶",
    "type": "其他：銅雕",
    "location": "台北市中正區忠孝東路一段7號 內政部警政署保安警察第六總隊",
    "company": "內政部警政署保安第六總隊"
  },
  {
    "city": "臺北市",
    "district": "中正區",
    "year": "98",
    "title": "榮耀時空--榮耀",
    "author": "林昭慶",
    "type": "其他：銅雕",
    "location": "台北市中正區忠孝東路一段7號 內政部警政署保安警察第六總隊",
    "company": "內政部警政署保安警察第六總隊"
  },
  {
    "city": "臺北市",
    "district": "中正區",
    "year": "98",
    "title": "科技之窗、人文之門",
    "author": "賴新龍",
    "type": "雕塑",
    "location": "台北市中正區金山北路77號（台北資訊產業大樓）入口左前方花台側",
    "company": "臺北市政府市場管理處"
  },
  {
    "city": "臺北市",
    "district": "中正區",
    "year": "98",
    "title": "愛的彩色城堡",
    "author": "李良仁",
    "type": "雕塑",
    "location": "台北市中正區中山南路8號 台大醫院兒童醫療大樓1樓戶外區入口廣場",
    "company": "國立臺灣大學醫學院附設醫院"
  },
  {
    "city": "臺北市",
    "district": "中正區",
    "year": "98",
    "title": "手舞足蹈",
    "author": "鄭榳甄",
    "type": "雕塑、街道傢俱",
    "location": "台北市中正區中山南路8號 台大醫院兒童醫療大樓1樓戶外區親子廣場",
    "company": "國立臺灣大學醫學院附設醫院"
  },
  {
    "city": "臺北市",
    "district": "中正區",
    "year": "98",
    "title": "滾球樂園",
    "author": "George Rhoads",
    "type": "其他：動態機具",
    "location": "台北市中正區中山南路8號 台大醫院兒童醫療大樓1樓室內電扶梯右側",
    "company": "國立台灣大學醫學院附設醫院"
  },
  {
    "city": "臺北市",
    "district": "中正區",
    "year": "98",
    "title": "我是莊士多",
    "author": "吳孟芸",
    "type": "其他：縫布壁飾",
    "location": "台北市中正區中山南路8號 台大醫院兒童醫療大樓1樓室內候診區牆面",
    "company": "國立台灣大學醫學院附設醫院"
  },
  {
    "city": "臺北市",
    "district": "中正區",
    "year": "98",
    "title": "健康、快樂",
    "author": "張義",
    "type": "其他：壁面掛飾",
    "location": "台北市中正區中山南路8號 台大醫院兒童醫療大樓1樓戶外區入口廣場",
    "company": "國立台灣大學醫學院附設醫院"
  },
  {
    "city": "臺北市",
    "district": "中正區",
    "year": "98",
    "title": "布囉唆廣場",
    "author": "吳孟芸",
    "type": "壁畫鑲嵌",
    "location": "台北市中正區中山南路8號 台大醫院兒童醫療大樓2樓室內遊戲區走道牆面",
    "company": "國立台灣大學醫學院附設醫院"
  },
  {
    "city": "臺北市",
    "district": "中正區",
    "year": "98",
    "title": "美麗心世界",
    "author": "",
    "type": "其他：壁面鑲掛",
    "location": "台北市中正區中山南路8號 台大醫院兒童醫療大樓4樓室內走道牆面",
    "company": "國立台灣大學醫學院附設醫院"
  },
  {
    "city": "臺北市",
    "district": "中正區",
    "year": "98",
    "title": "森之境界",
    "author": "夏愛華",
    "type": "其他：壁面鑲掛",
    "location": "台北市中正區中山南路8號 台大醫院兒童醫療大樓8樓室內家屬等候區牆面",
    "company": "國立台灣大學醫學院附設醫院"
  },
  {
    "city": "臺北市",
    "district": "中正區",
    "year": "98",
    "title": "心念",
    "author": "潘仁松",
    "type": "其他：壁面鑲掛",
    "location": "台北市中正區中山南路8號 台大醫院兒童醫療大樓11樓室內東護理站走道牆面",
    "company": "國立台灣大學醫學院附設醫院"
  },
  {
    "city": "臺北市",
    "district": "中正區",
    "year": "98",
    "title": "快樂成長",
    "author": "趙國宗",
    "type": "其他：壁面鑲掛",
    "location": "台北市中正區中山南路8號 台大醫院兒童醫療大樓12樓室內西護理站走道牆面",
    "company": "國立台灣大學醫學院附設醫院"
  },
  {
    "city": "臺北市",
    "district": "中正區",
    "year": "98",
    "title": "七巧森林",
    "author": "陳曉朋",
    "type": "其他：壁面鑲掛",
    "location": "台北市中正區中山南路8號 台大醫院兒童醫療大樓12樓室內東護理站走道牆面",
    "company": "國立台灣大學醫學院附設醫院"
  },
  {
    "city": "臺北市",
    "district": "中正區",
    "year": "98",
    "title": "來跳一支花非花舞吧",
    "author": "李昀珊",
    "type": "其他：壁面鑲掛",
    "location": "台北市中正區中山南路8號 13樓室內西護理站走道牆面",
    "company": "國立台灣大學醫學院附設醫院"
  },
  {
    "city": "臺北市",
    "district": "中正區",
    "year": "98",
    "title": "奇幻魚",
    "author": "劉時棟",
    "type": "其他：壁面鑲掛",
    "location": "台北市中正區中山南路8號 台大醫院兒童醫療大樓13樓室內東護理站走道牆面",
    "company": "國立台灣大學醫學院附設醫院"
  },
  {
    "city": "臺北市",
    "district": "中正區",
    "year": "98",
    "title": "你屬什麼？",
    "author": "官月淑",
    "type": "其他：壁面鑲掛",
    "location": "台北市中正區中山南路8號 台大醫院兒童醫療大樓14樓室內西護理站走道牆面",
    "company": "國立台灣大學醫學院附設醫院"
  },
  {
    "city": "臺北市",
    "district": "中正區",
    "year": "98",
    "title": "希望之樹",
    "author": "林致安",
    "type": "其他：壁面鑲掛",
    "location": "台北市中正區中山南路8號 台大醫院兒童醫療大樓14樓室內東護理站走道牆面",
    "company": "國立台灣大學醫學院附設醫院"
  },
  {
    "city": "臺北市",
    "district": "中正區",
    "year": "98",
    "title": "布囉唆精靈",
    "author": "吳孟芸",
    "type": "其他：壁面鑲掛",
    "location": "台北市中正區中山南路8號 台大醫院兒童醫療大樓B1樓室內走道牆面",
    "company": "國立台灣大學醫學院附設醫院"
  },
  {
    "city": "臺北市",
    "district": "中正區",
    "year": "98",
    "title": "春風化雨",
    "author": "",
    "type": "其他：壁面外掛",
    "location": "台北市中正區濟南路一段71號 成功高級中學綜合大樓南向與東向2-4樓建築外牆立面",
    "company": "臺北市立成功高級中學"
  },
  {
    "city": "臺北市",
    "district": "中正區",
    "year": "98",
    "title": "起飛",
    "author": "高田悟",
    "type": "雕塑",
    "location": "台北市中正區仁愛路一段50號 交通部入口廣場",
    "company": "中華電信股份有限公司台灣北區電信分公司"
  },
  {
    "city": "臺北市",
    "district": "中正區",
    "year": "98",
    "title": "資訊變換  時光流轉",
    "author": "宮島達男",
    "type": "其他：壁掛",
    "location": "台北市中正區仁愛路一段50號 交通部入口門廳",
    "company": "中華電信股份有限公司台灣北區電信分公司"
  },
  {
    "city": "臺北市",
    "district": "中正區",
    "year": "98",
    "title": "生命之光",
    "author": "江賢二",
    "type": "其他：壁掛",
    "location": "台北市中正區仁愛路一段50號 交通部入口廣場",
    "company": "中華電信股份有限公司台灣北區電信分公司"
  },
  {
    "city": "臺北市",
    "district": "中正區",
    "year": "98",
    "title": "光年",
    "author": "林俊廷",
    "type": "其他：懸掛吊飾",
    "location": "台北市中正區仁愛路一段50號 交通部國際會議廳一樓挑高空間",
    "company": "中華電信股份有限公司台灣北區電信分公司"
  },
  {
    "city": "臺北市",
    "district": "中正區",
    "year": "98",
    "title": "時空",
    "author": "雷金",
    "type": "其他：懸掛吊飾",
    "location": "台北市中正區杭州南路一段24號1樓 中華電信仁愛綜合大樓西側排煙口挑高空間",
    "company": "中華電信股份有限公司台灣北區電信分公司"
  },
  {
    "city": "臺北市",
    "district": "中正區",
    "year": "98",
    "title": "e大樓",
    "author": "黃沛瑩",
    "type": "雕塑",
    "location": "台北市中正區杭州南路一段24號1樓 中華電信仁愛綜合大樓杭州南路入口門廳",
    "company": "中華電信股份有限公司台灣北區電信分公司"
  },
  {
    "city": "臺北市",
    "district": "中正區",
    "year": "98",
    "title": "電信是生活的一部份",
    "author": "黃沛瑩",
    "type": "雕塑",
    "location": "台北市中正區杭州南路一段24號1樓 中華電信仁愛綜合大樓杭州南路入口門廳",
    "company": "中華電信股份有限公司台灣北區電信分公司"
  },
  {
    "city": "臺北市",
    "district": "中正區",
    "year": "98",
    "title": "波之舞",
    "author": "青鳥新媒體藝術",
    "type": "其他：造景",
    "location": "台北市中正區杭州南路一段24號1樓 中華電信仁愛綜合大樓杭州南路步道水景",
    "company": "中華電信股份有限公司台灣北區電信分公司"
  },
  {
    "city": "臺北市",
    "district": "內湖區",
    "year": "97",
    "title": "麗山圖騰 VS.卜湳文明",
    "author": "涂維政",
    "type": "壁畫浮雕",
    "location": "台北市內湖區港華街100號 麗山國小活動中心/柱子(麗山圖騰)、壁面(卜湳文明)",
    "company": "臺北市內湖區麗山國民小學"
  },
  {
    "city": "臺北市",
    "district": "內湖區",
    "year": "",
    "title": "KUSO-七彩超人麗山行     KUSO- The Ramboman's Journey in Li-shan",
    "author": "葉怡利Ye Yi-li",
    "type": "壁面浮雕",
    "location": "麗山國小活動中心/大門口階梯",
    "company": "臺北市內湖區麗山國民小學蔡易均26574158#227(總務處梁志恆26574158#221)"
  },
  {
    "city": "臺北市",
    "district": "內湖區",
    "year": "98",
    "title": "跨越。蛻變",
    "author": "",
    "type": "其他：壁面",
    "location": "捷運西湖站與西湖市場共構整開大樓東側及北側牆面",
    "company": "臺北市政府捷運工程局"
  },
  {
    "city": "臺北市",
    "district": "中山區",
    "year": "98",
    "title": "青蛙的天空",
    "author": "陳健",
    "type": "壁畫浮雕、垂吊造型",
    "location": "台北市中山區捷運內湖線劍南路站地面廣場天花板面及柱身牆面",
    "company": "臺北市政府捷運工程局"
  },
  {
    "city": "臺北市",
    "district": "內湖區",
    "year": "98",
    "title": "湖波盪漾",
    "author": "",
    "type": "其他：浮雕",
    "location": "台北市內湖區康寧路三段235號 台北捷運內湖線東湖站(B9站)車站入口處地面層牆面",
    "company": "臺北市政府捷運工程局"
  },
  {
    "city": "臺北市",
    "district": "內湖區",
    "year": "98",
    "title": "風箏--悠游天際",
    "author": "莊文毅",
    "type": "垂吊造型",
    "location": "台北市內湖區成功路五段11號  捷運內湖線大湖公園站  車站垂直動線挑空區",
    "company": "臺北市政府捷運工程局"
  },
  {
    "city": "臺北市",
    "district": "文山區",
    "year": "97",
    "title": "廣袤「ㄇㄠˋ」無垠「ㄧㄣˊ」",
    "author": "董振平",
    "type": "雕塑",
    "location": "台北市文山區 萬芳交流道匯入木柵路四段右側山壁",
    "company": "臺北市政府文化局"
  },
  {
    "city": "臺北市",
    "district": "文山區",
    "year": "97",
    "title": "丘之組曲",
    "author": "黃承令",
    "type": "雕塑、其他：地景",
    "location": "台北市文山區 萬芳交流道匯入木柵路四段路口處之兩座槽化島",
    "company": "臺北市政府文化局"
  },
  {
    "city": "臺北市",
    "district": "文山區",
    "year": "98",
    "title": "五行之思",
    "author": "賴哲祥",
    "type": "雕塑",
    "location": "台北市文山區景福街102號（內政部建築研究所材料實驗中心）基地東側入口左側",
    "company": "內政部建築研究所"
  },
  {
    "city": "臺北市",
    "district": "文山區",
    "year": "98",
    "title": "衡量之尺",
    "author": "賴哲祥",
    "type": "雕塑",
    "location": "台北市文山區景福街102號（內政部建築研究所材料實驗中心）建築物北側草坪",
    "company": "內政部建築研究所"
  },
  {
    "city": "臺北市",
    "district": "文山區",
    "year": "98",
    "title": "突破之門",
    "author": "賴哲祥",
    "type": "雕塑",
    "location": "台北市文山區景福街102號（內政部建築研究所材料實驗中心）建築物南側草地",
    "company": "內政部建築研究所"
  },
  {
    "city": "臺北市",
    "district": "文山區",
    "year": "98",
    "title": "尖端",
    "author": "賴哲祥",
    "type": "雕塑",
    "location": "台北市文山區景福街102號（內政部建築研究所材料實驗中心）建築物東南角、臨環河快速道路引道",
    "company": "內政部建築研究所"
  },
  {
    "city": "臺北市",
    "district": "文山區",
    "year": "98",
    "title": "異想花開-種子的夢想",
    "author": "林舜龍",
    "type": "雕塑",
    "location": "台北市文山區興隆路一段15號 台北市南區盆花批發市場守衛室前活動廣場",
    "company": "臺北市市場處"
  },
  {
    "city": "臺北市",
    "district": "文山區",
    "year": "98",
    "title": "異想花開-夢想的萌芽",
    "author": "林舜龍",
    "type": "雕塑",
    "location": "台北市文山區興隆路一段15號 台北市南區盆花批發市場正門入口處",
    "company": "臺北市市場處"
  },
  {
    "city": "臺北市",
    "district": "文山區",
    "year": "98",
    "title": "異想花開-美麗的綻放",
    "author": "林舜龍",
    "type": "其他：壁飾",
    "location": "台北市文山區興隆路一段15號 台北市南區盆花批發市場正面牆面",
    "company": "臺北市市場處"
  },
  {
    "city": "臺北市",
    "district": "文山區",
    "year": "98",
    "title": "異想花開-雲想花，花想雲",
    "author": "林舜龍",
    "type": "雕塑",
    "location": "台北市文山區興隆路一段15號 台北市南區盆花批發市場後方停車場外人行步道",
    "company": "臺北市市場處"
  },
  {
    "city": "臺北市",
    "district": "北投區",
    "year": "98",
    "title": "生命之舞",
    "author": "曾郁文",
    "type": "雕塑、其他：風動裝置",
    "location": "台北市北投區石牌路二段201號 中正樓右側草坪 設",
    "company": "臺北榮民總醫院"
  },
  {
    "city": "臺北市",
    "district": "北投區",
    "year": "98",
    "title": "生命之形",
    "author": "黃蘭雅",
    "type": "其他：壁面浮雕",
    "location": "台北市北投區石牌路二段201號 醫學科技大樓一樓大廳、致德樓一樓大廳",
    "company": "臺北榮民總醫院"
  },
  {
    "city": "臺北市",
    "district": "北投區",
    "year": "98",
    "title": "生命之光",
    "author": "竹山 聖",
    "type": "其他：照明裝置",
    "location": "台北市北投區石牌路二段201號 介壽堂與石牌路旁的綠帶",
    "company": "臺北榮民總醫院"
  },
  {
    "city": "臺北市",
    "district": "松山區",
    "year": "97",
    "title": "大旅行時代",
    "author": "元禾通藝術有限公司",
    "type": "雕塑",
    "location": "台北市松山區 捷運松山機場站 捷運出入口外地面廣場",
    "company": "臺北市政府捷運工程局 "
  },
  {
    "city": "臺北市",
    "district": "松山區",
    "year": "98",
    "title": "驚嘆．偶戲",
    "author": "圓就是藝術創策股份有限公司",
    "type": "壁畫浮雕",
    "location": "台北市松山區市民大道五段99號 台北偶戲館南向外牆",
    "company": "臺北市政府文化局委託九歌兒童劇團辦理"
  },
  {
    "city": "臺北市",
    "district": "松山區",
    "year": "98",
    "title": "飛行計畫",
    "author": "陳宏誠",
    "type": "工藝、其他：複合媒材裝置",
    "location": "台北市松山區 捷運松山機場站之穿堂層牆面",
    "company": "臺北市政府捷運工程局 "
  },
  {
    "city": "臺北市",
    "district": "松山區",
    "year": "98",
    "title": "夢想飛行",
    "author": "",
    "type": "工藝、壁畫浮雕、其他：垂吊造型",
    "location": "台北市松山區 捷運松山機場站月台層天花板",
    "company": "臺北市政府捷運工程局 "
  },
  {
    "city": "臺北市",
    "district": "信義區",
    "year": "98",
    "title": "智者之魚",
    "author": "",
    "type": "雕塑",
    "location": "台北市信義區松平路、松勤路間370號公園甲樓梯前方之小型入口廣場",
    "company": "臺北市停車管理工程處"
  },
  {
    "city": "臺北市",
    "district": "信義區",
    "year": "98",
    "title": "海角樂園",
    "author": "橘園國際藝術股份有限公司",
    "type": "雕塑",
    "location": "台北市信義路五段、松智路口  信義二號廣場",
    "company": "臺北市停車管理工程處"
  },
  {
    "city": "臺北市",
    "district": "南港區",
    "year": "97",
    "title": "「自然的韻律，文明的節奏」（共五件）之一：生命之舞",
    "author": "",
    "type": "垂吊造型",
    "location": "台北市南港區經貿二路一號‎ 南港展覽館一樓室內大廳",
    "company": "經濟部"
  },
  {
    "city": "臺北市",
    "district": "南港區",
    "year": "97",
    "title": "「自然的韻律，文明的節奏」（共五件）之二：四季之歌",
    "author": "",
    "type": "其他：玻璃鑲嵌",
    "location": "台北市南港區經貿二路一號‎ 南港展覽館一樓入口戶外長廊",
    "company": "經濟部"
  },
  {
    "city": "臺北市",
    "district": "南港區",
    "year": "97",
    "title": "「自然的韻律，文明的節奏」（共五件）之三：思考之間",
    "author": "",
    "type": "雕塑",
    "location": "台北市南港區經貿二路一號‎ 南港展覽館與捷運間之開放空間",
    "company": "經濟部"
  },
  {
    "city": "臺北市",
    "district": "南港區",
    "year": "97",
    "title": "「自然的韻律，文明的節奏」（共五件）之四：物我無限",
    "author": "",
    "type": "雕塑",
    "location": "台北市南港區經貿二路一號‎ 南港展覽館戶外圓形廣場",
    "company": "經濟部"
  },
  {
    "city": "臺北市",
    "district": "南港區",
    "year": "97",
    "title": "「自然的韻律，文明的節奏」（共五件）之五：天人境界",
    "author": "",
    "type": "雕塑",
    "location": "台北市南港區經貿二路一號‎ 南港展覽館戶外開放空間廳",
    "company": "經濟部"
  },
  {
    "city": "臺北市",
    "district": "南港區",
    "year": "98",
    "title": "漫步於歷史之後-時光的斷章",
    "author": "麻生秀穗",
    "type": "雕塑",
    "location": "台北市南港區研究院路二段128號 中央研究院人文社會科學館館外南側開放綠地",
    "company": "中央研究院"
  },
  {
    "city": "臺北市",
    "district": "南港區",
    "year": "98",
    "title": "漫步於歷史之後-融雪",
    "author": "景山健",
    "type": "雕塑",
    "location": "台北市南港區研究院路二段128號 中央研究院人文社會科學館南北側室內開放空間",
    "company": "中央研究院"
  },
  {
    "city": "臺北市",
    "district": "南港區",
    "year": "98",
    "title": "漫步於歷史之後-黑潮‧拉莫灣",
    "author": "卜袞‧依斯瑪哈單‧依斯立端",
    "type": "雕塑",
    "location": "台北市南港區研究院路二段128號 中央研究院人文社會科學館南側室內開放空間",
    "company": "中央研究院"
  },
  {
    "city": "臺北市",
    "district": "南港區",
    "year": "98",
    "title": "漫步於歷史之後-寰宇的信息",
    "author": "麻生秀穗",
    "type": "雕塑",
    "location": "台北市南港區研究院路二段128號 中央研究院人文社會科學館二樓入口大廳",
    "company": "中央研究院"
  },
  {
    "city": "臺北市",
    "district": "南港區",
    "year": "98",
    "title": "漫步於歷史之後-羽翼‧德濔嫩",
    "author": "尤瑪․達陸",
    "type": "其他：編織",
    "location": "台北市南港區研究院路二段128號 中央研究院人文社會科學館北側室內開放空間",
    "company": "中央研究院"
  },
  {
    "city": "臺北市",
    "district": "南港區",
    "year": "98",
    "title": "攀升趨吉",
    "author": "李國嘉",
    "type": "其他：壁面外掛",
    "location": "台北市南港區興中路44巷1號興中立體停車場",
    "company": "臺北市停車管理工程處"
  },
  {
    "city": "臺北市",
    "district": "南港區",
    "year": "98",
    "title": "新後山埤桃花源",
    "author": "古采陶藝工作室",
    "type": "雕塑、街道傢俱",
    "location": "台北市南港區東新街108巷23號  成德國中 1. 大門口右側 2. 校門左側水池邊",
    "company": "臺北市立成德國民中學"
  },
  {
    "city": "臺北市",
    "district": "南港區",
    "year": "98",
    "title": "捷運  碼頭",
    "author": "陶亞倫",
    "type": "街道傢俱",
    "location": "台北市南港區忠孝東路七段380號（捷運南港站）",
    "company": "臺北市政府捷運工程局 "
  },
  {
    "city": "臺北市",
    "district": "南港區",
    "year": "98",
    "title": "世界之窗–  起飛吧！夢想號！",
    "author": "王品捷",
    "type": "雕塑",
    "location": "台北市南港區南港路二段78號 1.南向(正面)大門口左右兩座基台上 2.東向六樓露台外牆左上角 3.基地東北角車輛出入口花台",
    "company": "中華郵政股份有限公司"
  },
  {
    "city": "臺北市",
    "district": "南港區",
    "year": "98",
    "title": "光隙",
    "author": "莊普",
    "type": "其他：柱面鑲嵌",
    "location": "台北市南港區南港路一段32號‎ 捷運內湖線南港展覽館站  西側入口前方廣場",
    "company": "臺北市政府捷運工程局 "
  },
  {
    "city": "臺北市",
    "district": "南港區",
    "year": "98",
    "title": "掠影",
    "author": "陳慧嶠",
    "type": "雕塑",
    "location": "台北市南港區南港路一段32號‎ 捷運內湖線南港展覽館站  穿堂層入口大廳之外牆玻璃惟幕外水池上",
    "company": "臺北市政府捷運工程局 "
  },
  {
    "city": "臺北市",
    "district": "南港區",
    "year": "98",
    "title": "空中之河",
    "author": "賴純純",
    "type": "其他：懸掛吊飾",
    "location": "台北市南港區南港路一段32號‎ 捷運內湖線南港展覽館站  月台層中央懸吊",
    "company": "臺北市政府捷運工程局 "
  },
  {
    "city": "臺北市",
    "district": "萬華區",
    "year": "97",
    "title": "快樂向前飛--夢之帆",
    "author": "大夏數位傳播有限公司",
    "type": "雕塑",
    "location": "台北市萬華區西藏路201號  台北市立萬華國民中學大學之道前廣場",
    "company": "臺北市立萬華國民中學"
  },
  {
    "city": "臺北市",
    "district": "萬華區",
    "year": "97",
    "title": "快樂向前飛--希望之虹（共11組件）",
    "author": "",
    "type": "工藝",
    "location": "台北市萬華區西藏路201號  台北市立萬華國民中學校門口",
    "company": "臺北市立萬華國民中學"
  },
  {
    "city": "臺北市",
    "district": "萬華區",
    "year": "97",
    "title": "快樂向前飛--智慧之樹",
    "author": "大夏數位傳播有限公司",
    "type": "工藝",
    "location": "台北市萬華區西藏路201號  台北市立萬華國民中學操場停車場入口",
    "company": "臺北市立萬華國民中學"
  },
  {
    "city": "臺北市",
    "district": "萬華區",
    "year": "97",
    "title": "快樂向前飛--快樂鳥",
    "author": "大夏數位傳播有限公司",
    "type": "壁畫鑲嵌",
    "location": "台北市萬華區西藏路201號  台北市立萬華國民中學家長接送區、199巷外牆",
    "company": "臺北市立萬華國民中學"
  },
  {
    "city": "臺北市",
    "district": "萬華區",
    "year": "97",
    "title": "青春模型",
    "author": "",
    "type": "工藝",
    "location": "台北市萬華區西藏路201號  台北市立萬華國民中學九龍柱",
    "company": "臺北市立萬華國民中學"
  },
  {
    "city": "臺北市",
    "district": "萬華區",
    "year": "97",
    "title": "！………",
    "author": "",
    "type": "雕塑",
    "location": "台北市萬華區西藏路201號  台北市立萬華國民中學新校舍前中庭廣場",
    "company": "臺北市立萬華國民中學"
  },
  {
    "city": "臺北市",
    "district": "萬華區",
    "year": "97",
    "title": "微笑‧請坐",
    "author": "",
    "type": "街道傢俱",
    "location": "台北市萬華區西藏路201號  台北市立萬華國民中學七龍柱區",
    "company": "臺北市立萬華國民中學"
  },
  {
    "city": "臺北市",
    "district": "萬華區",
    "year": "98",
    "title": "記憶的風景",
    "author": "邱昭財",
    "type": "其他：互動機械組件",
    "location": "台北市萬華區桂林路64號（老松國小）綜合大樓一樓走廊",
    "company": "臺北市萬華區老松國民小學"
  },
  {
    "city": "臺北市",
    "district": "萬華區",
    "year": "98",
    "title": "青青松松",
    "author": "張乃文",
    "type": "雕塑、其他：植栽",
    "location": "台北市萬華區桂林路64號（老松國小）綜合大樓前方地坪",
    "company": "臺北市萬華區老松國民小學"
  },
  {
    "city": "臺北市",
    "district": "中山區",
    "year": "101",
    "title": "忠貞獬豸Loyal Xiezhi",
    "author": "",
    "type": "",
    "location": "台北市中山區北安路111號福西營區入口處",
    "company": "憲兵202指揮部後勤科"
  },
  {
    "city": "臺北市",
    "district": "中正區",
    "year": "2010",
    "title": "水源之心Heart of the Fountainhead",
    "author": "亞剛‧亞科夫Yaacov Agam",
    "type": "",
    "location": "台北市中正區羅斯福路四段92號大樓外牆立面",
    "company": "臺北市政府文化局"
  },
  {
    "city": "臺北市",
    "district": "士林區",
    "year": "99",
    "title": "基地A：阿爾卡迪亞星球的訪客-來運動吧！Visitor from Arcadia-Let's Fun Sport",
    "author": "林建榮/ 橘園國際藝術策展股份有限公司Peter Lin / L’Orangerie International Art Consultant co.",
    "type": "",
    "location": "臺北市大同區大龍街51號運動中心西側出入口(出入口上方鋁包板)",
    "company": "臺北市大同區大同國民小學 　"
  },
  {
    "city": "臺北市",
    "district": "大同區",
    "year": "99",
    "title": "基地B：夢想起飛Dreams of Flying",
    "author": "簡明輝/ 水岸藝術文化研發有限公司Chien Ming-hui",
    "type": "",
    "location": "臺北市大同區大龍街51號運動場跑道盡頭區域(圍牆旁花圃通風口)",
    "company": "臺北市大同區大同國民小學 　"
  },
  {
    "city": "臺北市",
    "district": "信義區",
    "year": "99",
    "title": "永春之歌Songs of Yongchun",
    "author": "李昀珊Yun-Shan Lee",
    "type": "",
    "location": "臺北市立永春高級中學校門口階梯",
    "company": "臺北市立永春高級中學"
  },
  {
    "city": "臺北市",
    "district": "信義區",
    "year": "98",
    "title": "永春之愛－永春樹人The Love of Yongchun, the Mission of Yongchun",
    "author": "何炯德Jeong-Der Ho",
    "type": "",
    "location": "臺北市信義區松山路654號　臺北市立永春高級中學新建大樓(英華樓)入口廣場中心位置",
    "company": "臺北市立永春高級中學"
  },
  {
    "city": "臺北市",
    "district": "內湖區",
    "year": "99",
    "title": "歡樂童年Joyful Childhood",
    "author": "劉鎮洲Liou Chen-Chou",
    "type": "",
    "location": "臺北市內湖區碧湖國民小學正校門口高擋土牆上方",
    "company": "臺北市內湖區碧湖國民小學總務處"
  },
  {
    "city": "臺北市",
    "district": "大同區",
    "year": "99",
    "title": "財富之樹The Tree of Wealth",
    "author": "何炯德Jeong-Der Ho",
    "type": "",
    "location": "臺北市大同區承德路2 段208 號臺灣銀行資訊大樓一樓大廳，左右翼廊與主要動線交界處",
    "company": "臺灣銀行股份有限公司"
  },
  {
    "city": "臺北市",
    "district": "大同區",
    "year": "99",
    "title": "基地A：臺北傳奇Taipei Legend",
    "author": "李億勳  Lee Yi Hsun",
    "type": "",
    "location": "臺北市南京西路18巷及長安西路19巷2弄之間，捷運中山站沿線－ 捷運中山站1號出口至R4出口之間的線型公園",
    "company": "臺北當代藝術館"
  },
  {
    "city": "臺北市",
    "district": "大同區",
    "year": "2009",
    "title": "基地C：音響機器人BIGPOW",
    "author": "李明道  Akibo",
    "type": "",
    "location": "臺北市南京西路18巷及長安西路19巷2弄之間，捷運中山站沿線－線型公園圓型小劇場",
    "company": "臺北當代藝術館"
  },
  {
    "city": "臺北市",
    "district": "大安區",
    "year": "100",
    "title": "共生樂園－自然與人文的對話 Symbiosis Paradise-Dialogue between nature and culture",
    "author": "盧明德 Lu Ming-de",
    "type": "",
    "location": "國立臺灣師範大學 圖書館校區 機械大樓 西側外牆",
    "company": "國立臺灣師範大學"
  },
  {
    "city": "臺北市",
    "district": "大安區",
    "year": "100",
    "title": "通訊光獸 Communications Light Monster",
    "author": "林建榮 Chien-Jung Lin",
    "type": "",
    "location": "台北市信義路四段88號－大安機房棟右側的戶外街角",
    "company": "中華電信股份有限公司台灣北區電信分公司"
  },
  {
    "city": "臺北市",
    "district": "大安區",
    "year": "100",
    "title": "動點 The Motion Point",
    "author": "王福瑞、廖克楠、張永達 Fu-jui Wang, Keh-Nan Liao, Yung-Ta Chang",
    "type": "",
    "location": "臺北市信義路四段74巷7號－大安線中棟社區休憩中心的樓梯入口處",
    "company": "中華電信股份有限公司台灣北區電信分公司"
  },
  {
    "city": "臺北市",
    "district": "大安區",
    "year": "100",
    "title": "快樂噗 Happily Plurking",
    "author": "曾鈺涓、沈聖博、陳威廷 Yu-Chuan Tseng, Sheng-Po Shen, Wei-Ting Chen",
    "type": "",
    "location": "臺北市信義路四段74巷7號－大安線中棟一樓大門入口之前，人行道路邊和花台位置。",
    "company": "中華電信股份有限公司台灣北區電信分公司"
  },
  {
    "city": "臺北市",
    "district": "大安區",
    "year": "100",
    "title": "光菓園 Arbor of Luminous Fruit",
    "author": "許唐瑋 Tang-Wei Hsu",
    "type": "",
    "location": "臺北市信義路四段74巷7號－大安線中棟東側開放空間",
    "company": "中華電信股份有限公司台灣北區電信分公司"
  },
  {
    "city": "臺北市",
    "district": "大安區",
    "year": "100",
    "title": "藍天之子Kids of The Blue Sky",
    "author": "林珮淳數位藝術工作室Lin Pey Chwen Digital Art Lab",
    "type": "",
    "location": "師大附中至善樓川堂右牆面",
    "company": "國立台灣師範大學附屬高級中學"
  },
  {
    "city": "臺北市",
    "district": "南港區",
    "year": "2011",
    "title": "在地＆原生Local & Native",
    "author": "林昭慶Lin Chao-ching",
    "type": "",
    "location": "農業科技大樓右側旁綠地",
    "company": "中央研究院"
  },
  {
    "city": "臺北市",
    "district": "信義區",
    "year": "100",
    "title": "基因  鐵證／Genes ． Hard Evidence",
    "author": "林昭慶／Lin, Chao-Ching",
    "type": "",
    "location": "臺北市信區忠孝東路4段551號－內政部警政署刑事警察局正門右側",
    "company": "內政部警政署刑事警察局"
  },
  {
    "city": "臺北市",
    "district": "北投區",
    "year": "2011",
    "title": "義理之方Square of Principle",
    "author": "王秀杞Wang Hsiu-Chi",
    "type": "",
    "location": "台北市北投區珠海路155 號－1. 文字的力量：校門口右側拱門下；2. 讀書樂：校門口左側拱門下、後山坡上平台；3.飛躍中的義方：學校川堂左，中，右上方之二樓牆面",
    "company": "臺北市北投區義方國民小學"
  },
  {
    "city": "臺北市",
    "district": "南港區",
    "year": "100",
    "title": "「快或慢」“Fast or Slow”",
    "author": "三浦光一郎／MIURA ARCHITECTURE ING.,JAPAN",
    "type": "",
    "location": "台北市南港區研究院路一段1號－南港展覽館（BL18）站停車場層通往內湖線之付費區通道兩側之牆面",
    "company": "臺北市政府捷運工程局"
  },
  {
    "city": "臺北市",
    "district": "中山區",
    "year": "100",
    "title": "楓林軒－悠閒靜思／Maple Tree Pavilion - Quiet Meditation",
    "author": "施工忠昊藝術工作室/施正騏／Shy Gong",
    "type": "",
    "location": "臺北市中山區長安東路二段141號－第二處: 學校校門口至楓林道區域",
    "company": "臺北市中山女子高級中學"
  },
  {
    "city": "臺北市",
    "district": "大安區",
    "year": "100",
    "title": "律動七號 Movement no.7",
    "author": "弗洛里安．克拉  Florian Claar",
    "type": "",
    "location": "臺北市大安區行政中心1樓廣場",
    "company": "臺北市大安區公所"
  },
  {
    "city": "臺北市",
    "district": "大安區",
    "year": "2011",
    "title": "飛躍的世代  Soaring Generation",
    "author": "郭清治",
    "type": "",
    "location": "臺灣科技大學學校宿舍前方草地(臺北市基隆路四段43號)",
    "company": "國立臺灣科技大學"
  },
  {
    "city": "臺北市",
    "district": "北投區",
    "year": "2011",
    "title": "清江之水  Water from the Clean River",
    "author": "形意藝術空間有限公司 Wunder Art Co., Ltd.",
    "type": "",
    "location": "臺北市北投區清江國民小學：綜合活動中心前方廣場",
    "company": "臺北市北投區清江國民小學"
  },
  {
    "city": "臺北市",
    "district": "中正區",
    "year": "2010",
    "title": "自然饗宴",
    "author": "京石文化設計有限公司",
    "type": "",
    "location": "台北市臨沂街61號--入口外牆",
    "company": "內政部警政署"
  },
  {
    "city": "臺北市",
    "district": "大安區",
    "year": "2011",
    "title": "知識園  Garden of Knowledge",
    "author": "賴純純  Jun T. Lai",
    "type": "雕塑",
    "location": "臺北市大安區羅斯福路4段1號－弄春池旁草地",
    "company": "國立臺灣大學法律學院"
  },
  {
    "city": "臺北市",
    "district": "內湖區",
    "year": "2009",
    "title": "行之如意    Wherever the Road May Take You",
    "author": "大丰國際視覺傳達有限公司 DeForm Image Company 、楊致祥 Yang Chih-Hsiang 、徐振嵐Hsu Chen-Lan",
    "type": "",
    "location": "臺北市內湖區成功路2段193巷12號－高公局北區工程處行政大樓停車場入口左側草皮空地",
    "company": "高速公路局北區工程處"
  },
  {
    "city": "臺北市",
    "district": "內湖區",
    "year": "2012",
    "title": "A區：心懷所有、守護希望 Warm Embrace",
    "author": "金唐山設計工程有限公司 Jin Tang Shan Arts and Design co., ltd. #",
    "type": "",
    "location": "臺北市內湖區大湖山莊街170號－新建游泳池入口側牆及外牆結構柱上",
    "company": "臺北市內湖區大湖國民小學"
  },
  {
    "city": "臺北市",
    "district": "內湖區",
    "year": "2012",
    "title": "B區：向陽展翅、翔鷺飛飛",
    "author": "金唐山設計工程有限公司 Jin Tang Shan Arts and Design co., ltd. #",
    "type": "",
    "location": "臺北市內湖區大湖山莊街170號－活動中心二樓斜坡道北向牆面(外側)",
    "company": "臺北市內湖區大湖國民小學"
  },
  {
    "city": "臺北市",
    "district": "內湖區",
    "year": "2012",
    "title": "C區：湖中生遊 Game in the Lake",
    "author": "金唐山設計工程有限公司 Jin Tang Shan Arts and Design co., ltd. #",
    "type": "",
    "location": "臺北市內湖區大湖山莊街170號－活動中心與操場間帶狀空間",
    "company": "臺北市內湖區大湖國民小學"
  },
  {
    "city": "臺北市",
    "district": "文山區",
    "year": "2011",
    "title": "B案：「校內公共空間」－戲中學 - 框 Learning in Play-Frames",
    "author": "黃鼎義 Huang Ting Yi",
    "type": "平面－鑲嵌(馬賽克、玻璃)，立體－雕塑",
    "location": "台北市文山區秀明路二段114號－校內公共空間 - 生態池",
    "company": "臺北市文山區萬興國民小學"
  },
  {
    "city": "臺北市",
    "district": "文山區",
    "year": "2011",
    "title": "B案：「校內公共空間」－戲中學 - 彩 Learning in Play - Colors",
    "author": "陳曉朋 Shiau-Peng Chen",
    "type": "平面－鑲嵌(馬賽克、玻璃)，立體－雕塑",
    "location": "台北市文山區秀明路二段114號－校內公共空間 - 美勞教室天花板",
    "company": "臺北市文山區萬興國民小學"
  },
  {
    "city": "臺北市",
    "district": "文山區",
    "year": "2011",
    "title": "B案：「校內公共空間」－戲中學 - 愛　 Learbubg ub Play - Love",
    "author": "林一中 Leyond Y.C Lin",
    "type": "雕塑",
    "location": "台北市文山區秀明路二段114號－校內公共空間 - 自然教室天花板",
    "company": "臺北市文山區萬興國民小學"
  },
  {
    "city": "臺北市",
    "district": "文山區",
    "year": "2011",
    "title": "B案：「校內公共空間」－戲中學 - 聚　Learning in Play - Togetherness",
    "author": "陳曉朋 Chiau-Peng Chen",
    "type": "垂吊及壁掛造形",
    "location": "台北市文山區秀明路二段114號－校內公共空間 - 多功能教室外牆",
    "company": "臺北市文山區萬興國民小學"
  },
  {
    "city": "臺北市",
    "district": "文山區",
    "year": "2011",
    "title": "B案：「校內公共空間」－戲中學 - 影 Learning in Pley - Shadows",
    "author": "黃鼎義 Huang Ting Yi",
    "type": "鑲嵌(馬賽克、玻璃)",
    "location": "台北市文山區秀明路二段114號－校內公共空間 - 二樓空中走廊",
    "company": "臺北市文山區萬興國民小學"
  },
  {
    "city": "臺北市",
    "district": "文山區",
    "year": "2011",
    "title": "B案：「校內公共空間」－戲中學 - 數 Learning in Play - Number",
    "author": "林一中 Leyond Y.CLin",
    "type": "雕塑",
    "location": "台北市文山區秀明路二段114號－校內公共空間 - 操場邊",
    "company": "臺北市文山區萬興國民小學"
  },
  {
    "city": "臺北市",
    "district": "文山區",
    "year": "",
    "title": "A案：「校門公共空間」－千苗種子門 Gate of Thousand Shoot&Seeds",
    "author": "李昀珊 Yun-Shan Lee",
    "type": "平面－鑲嵌(馬賽克、玻璃)，立體－雕塑",
    "location": "台北市文山區秀明路二段114號－校門公共空間",
    "company": "臺北市文山區萬興國民小學"
  },
  {
    "city": "臺北市",
    "district": "文山區",
    "year": "",
    "title": "A案：「校門公共空間」－守護樹苗地標 Guardian Tree Sapling Landmark",
    "author": "李昀珊 Yun-Shan Lee",
    "type": "雕塑",
    "location": "台北市文山區秀明路二段114號－校門公共空間",
    "company": "臺北市文山區萬興國民小學"
  },
  {
    "city": "臺北市",
    "district": "文山區",
    "year": "",
    "title": "A案：「校門公共空間」－春風化雨牆 Wall of Nourishment",
    "author": "李昀珊 Yun-Shan Lee",
    "type": "平面－鑲嵌(馬賽克、玻璃)，立體－雕塑",
    "location": "台北市文山區秀明路二段114號－校門公共空間",
    "company": "臺北市文山區萬興國民小學"
  },
  {
    "city": "臺北市",
    "district": "文山區",
    "year": "",
    "title": "A案：「校門公共空間」－成長之歌．童言童語 - 玻璃圖案設計 Song of Growing Up - Glass Pattern Design",
    "author": "李昀珊 Yun-Shan Lee",
    "type": "畫作／影像(傳統繪畫、書法、攝影、數位影像、壁畫彩繪)",
    "location": "台北市文山區秀明路二段114號－校門公共空間",
    "company": "臺北市文山區萬興國民小學"
  },
  {
    "city": "臺北市",
    "district": "內湖區",
    "year": "2012",
    "title": "游於藝 Enjoying Art (截江奪斗、藝高膽大、藝氣風發、藝無反顧)",
    "author": "水岸藝術文化研發有限公司 (簡明輝) Shuei An Design Studio (Jian Ming-Huei)",
    "type": "",
    "location": "臺北市內湖區內湖路2段177號 　　作品一：截江奪斗－戲曲樓正前方矩形草坪；作品二：藝高膽大－鄰近戲曲樓前方三角草坪；作品三：藝氣風發－籃球場旁；作品四：藝無反顧－中正堂後",
    "company": "國立臺灣戲曲學院"
  },
  {
    "city": "臺北市",
    "district": "士林區",
    "year": "",
    "title": "偉大的巨人Best! Giant",
    "author": "樹德科技大學（曾英棟）Shu-Te University （Ying-Tung Tseng）",
    "type": "",
    "location": "臺北市士林區忠誠路二段101號 校區正門廣場（即棒球場前入口廣場）",
    "company": "臺北市立體育學院"
  },
  {
    "city": "臺北市",
    "district": "士林區",
    "year": "",
    "title": "好棒．好棒 Bravo! Bravo!",
    "author": "陳正勳Chen Cheng-Hsun",
    "type": "",
    "location": "臺北市士林區忠誠路二段101號天母棒球場棒球場兩側外牆暨相關設施物",
    "company": "臺北市立體育學院"
  },
  {
    "city": "臺北市",
    "district": "士林區",
    "year": "",
    "title": "強棒出擊 Home Run",
    "author": "義春實業有限公司（賴純純）Jun Jun Art Studio（Lai, Tsun Tsun）",
    "type": "",
    "location": "臺北市士林區忠誠路二段101號 水景廣場區",
    "company": "臺北市立體育學院"
  },
  {
    "city": "臺北市",
    "district": "士林區",
    "year": "",
    "title": "力與美Power and Beauty",
    "author": "施工忠昊 Shy Gong",
    "type": "",
    "location": "臺北市士林區忠誠路二段101號 教學大學中庭挑空區",
    "company": "臺北市立體育學院"
  },
  {
    "city": "臺北市",
    "district": "大安區",
    "year": "2009",
    "title": "跳躍的月影Splendid Shadow of the Moon Completion",
    "author": "竹生設計＋角度設計CAIL Design+ Angle Archit.",
    "type": "",
    "location": "臺北市大安區基隆路4段43號國立臺灣科技大學國際大樓與營建系中間的風雨走廊",
    "company": "國立臺灣科技大學總務處"
  },
  {
    "city": "臺北市",
    "district": "北投區",
    "year": "2009",
    "title": "下雨Raining",
    "author": "黎志文Chi Man",
    "type": "H270 , L350 ",
    "location": "台北市北投區學園路1 號藝文生態館外草原",
    "company": "國立台北藝術大學"
  },
  {
    "city": "臺北市",
    "district": "北投區",
    "year": "2009",
    "title": "天堂鳥Thornbird",
    "author": "張子隆Chang Tzu-Lung",
    "type": "",
    "location": "台北市北投區學園路1 號學生宿舍新館C 棟中庭",
    "company": "國立台北藝術大學"
  },
  {
    "city": "臺北市",
    "district": "北投區",
    "year": "2009",
    "title": "臥看雲起為Lying Down and Watching the Clouds Rising",
    "author": "張乃文Chang Nai-Wen",
    "type": "",
    "location": "台北市北投區學園路1 號 學生宿舍新館階梯廣場",
    "company": "國立台北藝術大學 "
  },
  {
    "city": "臺北市",
    "district": "北投區",
    "year": "2009",
    "title": "窗櫺樹影Tree Shadows on the Windows",
    "author": "賴九岑Lai Chiu-Chen",
    "type": "",
    "location": "台北市北投區學園路1 號 學生宿舍新館玻璃帷幕牆面",
    "company": "國立台北藝術大學"
  },
  {
    "city": "臺北市",
    "district": "北投區",
    "year": "2009",
    "title": "靈光What about Self?",
    "author": "顧何忠Ku Ho Chung",
    "type": "",
    "location": "台北市北投區學園路1 號 學生宿舍新館AB 棟門廳壁面",
    "company": "國立台北藝術大學"
  },
  {
    "city": "臺北市",
    "district": "北投區",
    "year": "2009",
    "title": "Landscape 27",
    "author": "陳建榮Chen, Chien-jung",
    "type": "",
    "location": "台北市北投區學園路1 號 學生宿舍新館C 棟門廳壁面",
    "company": "國立台北藝術大學"
  },
  {
    "city": "臺北市",
    "district": "北投區",
    "year": "2009",
    "title": "草莓鬆餅Strawberry Waffle",
    "author": "王亮尹Wang Liang-Yin",
    "type": "",
    "location": "台北市北投區學園路1 號 學生宿舍新館服務中心前壁面",
    "company": "國立台北藝術大學"
  },
  {
    "city": "臺北市",
    "district": "大同區",
    "year": "2009",
    "title": "基地D：歡迎光臨銀河鐵道車站Welcome to the Galaxy Railway",
    "author": "許唐瑋  Hsu Tang Wei",
    "type": "",
    "location": "臺北市南京西路18巷及長安西路19巷2弄之間，捷運中山站沿線－捷運中山站R4出口站體電扶/樓梯通道",
    "company": "臺北當代藝術館"
  },
  {
    "city": "臺北市",
    "district": "中正區",
    "year": "2011",
    "title": "榮耀的天空 Sky of glory",
    "author": "郭清治 Kuo Chin-chih",
    "type": "",
    "location": "臺北市中正區南海路56號－教學綜合大、致知樓、資源大樓圍塑之區域",
    "company": "臺北市立建國高級中學"
  },
  {
    "city": "臺北市",
    "district": "大同區",
    "year": "2011",
    "title": "家‧夢想的城堡  Castle of dreams",
    "author": "理繼文化藝術有限公司 Rich Art & Culture Co.",
    "type": "",
    "location": "A區：鄰接承德路、與勸學小徑交錯出的三角區塊。B區：鄰接勸學小徑與至聖公園間的三角區塊。C區：鄰接勸學小徑、後方則為公營住宅之活動中心。D區：陳列位罝為緊鄰其他公共藝術作品之活動中心牆面。",
    "company": "臺北市都市更新處"
  },
  {
    "city": "臺北市",
    "district": "南港區",
    "year": "2010",
    "title": "邀請比件 － 未來之光 The Light of Future",
    "author": "張乃文 Chang Nai-Wen",
    "type": "立體其他 (立體其他技法媒材或同時擁有上述兩種以上立體形式之作品)",
    "location": "臺北市南港區惠民街67號－校門穿堂",
    "company": "臺北市南港區南港國民小學"
  },
  {
    "city": "臺北市",
    "district": "南港區",
    "year": "2010",
    "title": "邀請比件 － 在轉角處相遇 Encounter at the Corner",
    "author": "楊尊智 Yang Tsun-Chih",
    "type": "平面其他 (平面其他技法媒材或同時擁有上述兩種以上平面形式之作品)",
    "location": "臺北市南港區惠民街67號－中庭／旋轉樓梯間",
    "company": "臺北市南港區南港國民小學"
  },
  {
    "city": "臺北市",
    "district": "南港區",
    "year": "2010",
    "title": "公開徵選A案 －夢想起飛 Dreams Take Flight",
    "author": "季行藝術工作室／歐志成、葉茗和、彭志煌 Jising Arts Studio  / OU, CHIH-CHENG",
    "type": "鑲嵌 (馬賽克、玻璃)",
    "location": "臺北市南港區惠民街67號－活動中心南側牆面",
    "company": "臺北市南港區南港國民小學"
  },
  {
    "city": "臺北市",
    "district": "南港區",
    "year": "2010",
    "title": "邀請比件 － 向陽組曲Sunward Suite",
    "author": "李昀珊 Yun-Shan Lee",
    "type": "立體其他 (立體其他技法媒材或同時擁有上述兩種以上立體形式之作品)",
    "location": "臺北市南港區惠民街67號－二樓平台",
    "company": "臺北市南港區南港國民小學"
  },
  {
    "city": "臺北市",
    "district": "南港區",
    "year": "2010",
    "title": "公開徵選B案 － 快樂成長－小樹苗 Happy Little Saping",
    "author": "吳建福 Chien-fu, Wu",
    "type": "立體其他 (立體其他技法媒材或同時擁有上述兩種以上立體形式之作品)",
    "location": "臺北市南港區惠民街67號－戶外圍牆東南角落",
    "company": "臺北市南港區南港國民小學"
  },
  {
    "city": "臺北市",
    "district": "文山區",
    "year": "2011",
    "title": "景美心．臺北情 Jingmei Current, Taipei Feel",
    "author": "黃耿茂 Keng-Mao Huang",
    "type": "",
    "location": "台北市文山區景文街108號－鄉土穿廊左右兩側牆面、正校門口及前庭左側蓄水池、開道碑後方牆面",
    "company": "臺北市文山區景美國民小學"
  },
  {
    "city": "臺北市",
    "district": "大安區",
    "year": "2010",
    "title": "B案 (戶外廣場) － 分子之間",
    "author": "杜俊賢",
    "type": "雕塑",
    "location": "臺大化學新研究大樓積學館戶外廣場",
    "company": "國立臺灣大學化學系"
  },
  {
    "city": "臺北市",
    "district": "南港區",
    "year": "",
    "title": "時空下的印記 Imprints of Time",
    "author": "洪志成 HUNG, Chih-Chen",
    "type": "",
    "location": "台北市南港區研究院路二段128號-中央研究院歷史語言研究所牆右側、中庭邊側",
    "company": "中央研究院歷史語言研究所"
  },
  {
    "city": "臺北市",
    "district": "南港區",
    "year": "2012",
    "title": "白乳酪 White Cheese",
    "author": "陳文祺 Chen, Wen-Chi",
    "type": "傢俱設施(含識別系統、座椅、燈具)",
    "location": "臺北市南港區研究院路二段128號－主要入口大廳一樓左側長形空間",
    "company": "中央研究院　人文社會科學研究中心"
  },
  {
    "city": "臺北市",
    "district": "大安區",
    "year": "",
    "title": "隔牆有耳 The Walls have Ears",
    "author": "noiz architects",
    "type": "",
    "location": "臺北市大安區和平東路二段134號 - 國立臺北教育大學 展示樓 東北側外牆",
    "company": "國立臺北教育大學"
  },
  {
    "city": "臺北市",
    "district": "大安區",
    "year": "2012",
    "title": "布魯克林牆 Brooklyn wall",
    "author": "noiz architects",
    "type": "",
    "location": "臺北市大安區和平東路二段134號 - 國立臺北教育大學 展示樓 東側外牆",
    "company": "國立臺北教育大學"
  },
  {
    "city": "臺北市",
    "district": "大安區",
    "year": "2012",
    "title": "磁場 Magnetic Fields",
    "author": "noiz architects",
    "type": "",
    "location": "臺北市大安區和平東路二段134號 - 國立臺北教育大學 展示樓 一樓咖啡廳、活動空間",
    "company": "國立臺北教育大學"
  },
  {
    "city": "臺北市",
    "district": "大安區",
    "year": "2012",
    "title": "雙觀點 Two points of view",
    "author": "noiz architects",
    "type": "",
    "location": "臺北市大安區和平東路二段134號 - 國立臺北教育大學 展示樓 北側外牆",
    "company": "國立臺北教育大學"
  },
  {
    "city": "臺北市",
    "district": "大安區",
    "year": "2013",
    "title": "打開\"藝\"想世界　World of Worndrs, Where \"Art\" Thou?",
    "author": "蔡潔莘  Tsai, Chieh-hsin",
    "type": "",
    "location": "臺北市大安區和平東路二段94號 - 登月樓前綠地、至善樓左側",
    "company": "國立臺北教育大學附設實驗國民小學"
  },
  {
    "city": "臺北市",
    "district": "大安區",
    "year": "2012",
    "title": "師之華 The splendor of Teaching",
    "author": "李億勳 Yi-hsun Lee 、廖瑞章 Ray Liao、林維俞 Wwi-Yu Lin",
    "type": "",
    "location": "臺北市大安區和平東路一段162號－校本區校門口右側之空地(雕塑公園)",
    "company": "國立臺灣師範大學"
  },
  {
    "city": "臺北市",
    "district": "大安區",
    "year": "2012",
    "title": "師之傳承 The Heritage of Teaching",
    "author": "李億勳 Yi-hsun Lee 、廖瑞章 Ray Liao、林維俞 Wwi-Yu Lin",
    "type": "",
    "location": "臺北市大安區和平東路一段162號－校本區校門口右側之空地(雕塑公園)",
    "company": "國立臺灣師範大學"
  },
  {
    "city": "臺北市",
    "district": "大安區",
    "year": "2012",
    "title": "師之道The Way of Teaching",
    "author": "李億勳 Yi-hsun Lee 、廖瑞章 Ray Liao、林維俞 Wwi-Yu Lin",
    "type": "",
    "location": "臺北市大安區和平東路一段162號－校本區校門口右側之空地(雕塑公園)",
    "company": "國立臺灣師範大學"
  },
  {
    "city": "臺北市",
    "district": "內湖區",
    "year": "2012",
    "title": "愛在綻放 Love in Blossom",
    "author": "陳麗杏 Chen Li-hsing",
    "type": "",
    "location": "臺北市成功路二段325號 － 三軍總醫院入口區",
    "company": "國防醫學院三軍總醫院"
  },
  {
    "city": "臺北市",
    "district": "內湖區",
    "year": "2012",
    "title": "提攜與扶持 Guide & Support",
    "author": "姜憲明 Chiang Hsien-ming",
    "type": "",
    "location": "臺北市成功路二段325號 － 國防醫學院入口區",
    "company": "國防醫學院三軍總醫院"
  },
  {
    "city": "臺北市",
    "district": "內湖區",
    "year": "2012",
    "title": "依．偎 Leaning",
    "author": "劉育明 Liu Yu-ming",
    "type": "",
    "location": "臺北市成功路二段325號 － 職務官舍 A 及 B 區",
    "company": "國防醫學院三軍總醫院"
  },
  {
    "city": "臺北市",
    "district": "信義區",
    "year": "2012",
    "title": "萌想．夢想：發芽的瞬間 Burgeoning Dream: The Moment of Budding",
    "author": "富永泰雄 Tominaga Yasuo",
    "type": "",
    "location": "臺北市信義區忠孝東路五段236巷15號－篤行樓前廣場",
    "company": "臺北市立松山高級工農職業學校"
  },
  {
    "city": "臺北市",
    "district": "信義區",
    "year": "2012",
    "title": "萌想．夢想：飛翔的種子 Burgeoning Dream: Flying Seeds",
    "author": "富永泰雄 Tominaga Yasuo",
    "type": "",
    "location": "臺北市信義區忠孝東路五段236巷15號－篤行樓正面外牆",
    "company": "臺北市立松山高級工農職業學校"
  },
  {
    "city": "臺北市",
    "district": "信義區",
    "year": "2012",
    "title": "希望之樹 Tree of Hope",
    "author": "李岳庚 Li Yueh-Keng",
    "type": "",
    "location": "臺北市信義區忠孝東路五段236巷15號－學生活動中心中庭廣場",
    "company": "臺北市立松山高級工農職業學校"
  },
  {
    "city": "臺北市",
    "district": "信義區",
    "year": "2012",
    "title": "茁實路 Flourishing Road",
    "author": "陳曉明 Shiau-Peng Chen",
    "type": "",
    "location": "臺北市信義區忠孝東路五段236巷15號－行政大樓1樓川堂東側牆面、天花板及柱面",
    "company": "臺北市立松山高級工農職業學校"
  },
  {
    "city": "臺北市",
    "district": "南港區",
    "year": "2012",
    "title": "玉成四季－A.成長調色盤 Four Seasons of YuCheng－The Palette of Yuth",
    "author": "李昀珊 Yun-Shan Lee",
    "type": "平面：鑲嵌(馬賽克、玻璃)、浮雕；立體：雕塑、垂吊及壁掛造形、立體其他(立體其他技法媒材或同時擁有上述兩種以上立體形式之作品)；組合形式：同時包含立體與平面兩種以上類型",
    "location": "臺北市南港區向陽路31號－仁愛樓出入口與穿堂區域",
    "company": "臺北市南港區玉成國民小學"
  },
  {
    "city": "臺北市",
    "district": "南港區",
    "year": "2012",
    "title": "玉成四季－B.育成之光  Four Seasons of YuCheng－The Radiance of Nurture",
    "author": "李昀珊 Yun-Shan Lee",
    "type": "平面：鑲嵌(馬賽克、玻璃)、浮雕；立體：雕塑、垂吊及壁掛造形、立體其他(立體其他技法媒材或同時擁有上述兩種以上立體形式之作品)；組合形式：同時包含立體與平面兩種以上類型",
    "location": "臺北市南港區向陽路31號－四維樓入口區",
    "company": "臺北市南港區玉成國民小學"
  },
  {
    "city": "臺北市",
    "district": "萬華區",
    "year": "2012",
    "title": "迎春風  Here Comes the Spring Breeze",
    "author": "陶亞倫、劉中興  Tao, Ya-Lun、Chung-Hsing",
    "type": "",
    "location": "臺北市萬華區西園路二段9號－建築物外牆空間",
    "company": "臺北市政府文化局"
  },
  {
    "city": "臺北市",
    "district": "中正區",
    "year": "",
    "title": "（計畫B：聚落雙向入口意象串連及燈光藝術計畫）心房　動．見．聽心房 Heart Chamber",
    "author": "林舜龍",
    "type": "",
    "location": "台北市中正區汀州路三段230巷－寶藏巖共生聚落",
    "company": "財團法人台北市文化基金會藝術村營運部"
  },
  {
    "city": "臺北市",
    "district": "中正區",
    "year": "",
    "title": "（計畫D：寶藏巖歷史斷面）藝術的花朵　光影一線----大花咸豐草 Illuminant and Shadow ------ Duckweed & Beggar-ticks ",
    "author": "潘一如",
    "type": "",
    "location": "臺北市中正區汀州路三段230巷14弄2號至73號及臺北市中正區福和段2小段695、695-1號",
    "company": "財團法人台北市文化基金會藝術村營運部"
  },
  {
    "city": "臺北市",
    "district": "大安區",
    "year": "2010",
    "title": "A案 (室內大廳) － 狀態之間",
    "author": "陳健＆蔡淑瑩",
    "type": "雕塑、垂吊造型",
    "location": "臺大化學新研究大樓積學館",
    "company": "國立臺灣大學化學系"
  },
  {
    "city": "臺北市",
    "district": "中山區",
    "year": "2009",
    "title": "舞動中山 Dabcubg Zhong-Shan",
    "author": "形意藝術空間有限公司/吳建福 WunderArt co.,ltd / Wu, Chien-Fu",
    "type": "",
    "location": "臺北市中山區長安東路二段141號－第一處：綜合教學大樓（莊敬大樓）中庭休憩庭院區域",
    "company": "臺北市中山女子高級中學"
  },
  {
    "city": "臺北市",
    "district": "萬華區",
    "year": "2013",
    "title": "艋舺記憶  Monga Memories",
    "author": "簡明輝",
    "type": "",
    "location": "臺北市 萬華區 廣州街221之1號 牆面",
    "company": "臺北市文化局"
  },
  {
    "city": "臺北市",
    "district": "萬華區",
    "year": "2013",
    "title": "記憶與重生----台灣雲豹2013   Formosan Clouded",
    "author": "財團法人紙風車文教基 Paper Windmill Arts and",
    "type": "雕塑",
    "location": "台北市萬華區水源路199 號 - 青年公園閱覽室前草坪",
    "company": "臺北市政府文化局"
  },
  {
    "city": "臺北市",
    "district": "北投區",
    "year": "2014",
    "title": "北投的記憶    Memories of Beitou",
    "author": "朱芳毅    Chu Fang-Yi",
    "type": "雕塑",
    "location": "臺北市北投區中山路2 號---北投溫泉博物館A1、A2 展示區",
    "company": "臺北市政府文化局"
  },
  {
    "city": "臺北市",
    "district": "北投區",
    "year": "2014",
    "title": "尋找彩虹女巫    Searching for the Rainbow Witch",
    "author": "水內貴英   Mizuuchi Takahide",
    "type": "雕塑",
    "location": "臺北市北投區中山路6 號（北投露天溫泉斜對面）---北投區北投二號公園迷宮區",
    "company": "臺北市政府文化局"
  },
  {
    "city": "臺北市",
    "district": "北投區",
    "year": "2014",
    "title": "趣北投 Ki-Pa-Taw    ",
    "author": "黃清輝    Huang Ching-Hui",
    "type": "雕塑",
    "location": "臺北市北投區中山路5 之12 號（北投社區大學）斜對面---中山路人行步道",
    "company": "臺北市政府文化局"
  },
  {
    "city": "臺北市",
    "district": "北投區",
    "year": "2014",
    "title": "綠意盎然    Exuberant Green",
    "author": "黃文慶     Huang Wen-Ching",
    "type": "平面其他",
    "location": "臺北市北投區光明路與中山路交叉口---銀星橋橋身",
    "company": "臺北市政府文化局"
  },
  {
    "city": "臺北市",
    "district": "北投區",
    "year": "2014",
    "title": "花開泉湧     Blooming Flowers, Surging Springs",
    "author": "黎志文   Lai Chi-Man",
    "type": "雕塑",
    "location": "臺北市北投區光明路、溫泉路七十三巷口---北投區234 號公園",
    "company": "臺北市政府文化局"
  },
  {
    "city": "臺北市",
    "district": "中山區",
    "year": "2013",
    "title": "與海為伴  With the Sea",
    "author": "崔永嬿  YungYen Tsui",
    "type": "雕塑",
    "location": "台北市中山區北安路305號",
    "company": "海軍司令部"
  },
  {
    "city": "臺北市",
    "district": "大安區",
    "year": "2012",
    "title": "數碼   Digital",
    "author": "許禮憲     Hsu Li-Hsien",
    "type": "雕塑、垂吊及壁掛造形",
    "location": "台北市大安區羅斯福路四段1號----天文數學館大門左側廊道",
    "company": "中央研究院天文及天文物理研究所"
  },
  {
    "city": "臺北市",
    "district": "大安區",
    "year": "2012",
    "title": "軌跡    Trajectory",
    "author": "許禮憲     Hsu Li-Hsien",
    "type": "垂吊及壁掛造形",
    "location": "台北市大安區羅斯福路四段1號----天文數學館大門左側廊道",
    "company": "中央研究院天文及天文物理研究所"
  },
  {
    "city": "臺北市",
    "district": "信義區",
    "year": "2013",
    "title": "繽紛校園樂學習    Colorful Campus of Fun Learning",
    "author": "景茂藝術有限公司    黃耿茂    Jing Mao Arts Company Limited.     Keng Mao Hung",
    "type": "壁畫",
    "location": "臺北市信義區松勤街60號---校門口周圍牆面",
    "company": "臺北市信義區信義國民小學"
  },
  {
    "city": "臺北市",
    "district": "信義區",
    "year": "2013",
    "title": "上學趣    Off to School We Go",
    "author": "藝術空間工作室    陳世平、李國成    Chen Shih-Ping,  Lee Kuo-Cheng",
    "type": "垂吊及壁掛造形---同時包含立體與平面兩種以上類型",
    "location": "臺北市信義區松勤街60號---活動中心左側牆面",
    "company": "臺北市信義區信義國民小學"
  },
  {
    "city": "臺北市",
    "district": "信義區",
    "year": "2012",
    "title": "相遇時刻  The moment We Meet",
    "author": "黃心健    Hsin Chien Huang",
    "type": "",
    "location": "台北市信義區信義路5段20號--捷運信義線台北101/世貿站穿堂層與101大樓之通道(出入口E通道)",
    "company": "臺北市政府捷運工程局"
  },
  {
    "city": "臺北市",
    "district": "信義區",
    "year": "2012",
    "title": "心蛙朵朵開    Tree Frog Hearts in Blossom",
    "author": "江洋輝--麻粒國際文化試驗股份有限公司    Yang-huei Chiang , VERY Conception Corporation",
    "type": "",
    "location": "臺北市信義區信義線五段152號---捷運信義線象山站穿堂層非付費區牆面",
    "company": "臺北市政府捷運工程局"
  },
  {
    "city": "臺北市",
    "district": "大安區",
    "year": "2012",
    "title": "無限    Infinite",
    "author": "張子隆      Chang Tzu-lung",
    "type": "雕塑",
    "location": "台北市大安區羅斯福路四段1號----天文數學館11樓空中花園",
    "company": "中央研究院天文及天文物理研究所"
  },
  {
    "city": "臺北市",
    "district": "南港區",
    "year": "100",
    "title": "我們的私房公共藝術",
    "author": "黃心健  Hsin Chien Huang",
    "type": "",
    "location": "台北市南港區研究院路一段1號--捷運南港展覽館站穿堂層付費區與非付費區大廳牆面",
    "company": "臺北市政府捷運工程局"
  },
  {
    "city": "臺北市",
    "district": "中正區",
    "year": "102",
    "title": "聲。翻轉  Flipmata",
    "author": "Noiz Architects (豐田啟介)，城一裕     Noiz Architects  (Keisuke Toyoda)  Kazuhiro Jo",
    "type": "垂吊及壁掛造形",
    "location": "臺北市中正區濟南路一段321號---承曦樓入口上方玻璃帷幕外側",
    "company": "國立臺北商業技術學院"
  },
  {
    "city": "臺北市",
    "district": "士林區",
    "year": "104",
    "title": "蛹出夢想，希望再現 Hope Emerges",
    "author": "金唐山設計工程有限公司  Jin Tang Shan Arts and Design Co., Ltd.",
    "type": "",
    "location": "臺北市士林區延平北路六段308號 - 校園主要入口 (警衛室兩側花園)",
    "company": "臺北市士林區社子國民小學"
  },
  {
    "city": "臺北市",
    "district": "士林區",
    "year": "104",
    "title": "自然圓舞曲 The Waltz of Nature",
    "author": "金唐山設計工程有限公司  Jin Tang Shan Arts and Design Co., Ltd.",
    "type": "",
    "location": "臺北市士林區延平北路六段308號 - 中操場開放空間之休憩空間",
    "company": "臺北市士林區社子國民小學"
  },
  {
    "city": "臺北市",
    "district": "士林區",
    "year": "104",
    "title": "一同飛向藍天  Let's Fly tothe Blue Sky Together",
    "author": "金唐山設計工程有限公司  Jin Tang Shan Arts and Design Co., Ltd.",
    "type": "",
    "location": "臺北市士林區延平北路六段308號 - 新建後操場暨地下停車場通風口",
    "company": "臺北市士林區社子國民小學"
  },
  {
    "city": "臺北市",
    "district": "大同區",
    "year": "100",
    "title": "鎮金之寶LIFE IS GOLD",
    "author": "葉怡利Yeh Yi-Li",
    "type": "",
    "location": "臺灣銀行資訊大樓設置公共藝術（設置位置1）建築物外部公共空間",
    "company": "臺灣銀行股份有限公司"
  },
  {
    "city": "臺北市",
    "district": "文山區",
    "year": "92",
    "title": "黎明之光‧虹橋艷影",
    "author": "黃兆明",
    "type": "雕塑",
    "location": "台北市立景美女中游泳池",
    "company": ""
  },
  {
    "city": "臺北市",
    "district": "內湖區",
    "year": "93",
    "title": "無題",
    "author": "董心如",
    "type": "繪畫",
    "location": "台北市民權東路6段91號／4F-1-4",
    "company": "台灣士林地方法院"
  },
  {
    "city": "臺北市",
    "district": "內湖區",
    "year": "93",
    "title": "無題",
    "author": "陳幸婉",
    "type": "繪畫",
    "location": "台北市民權東路6段91號／4F-1-5",
    "company": "台灣士林地方法院"
  },
  {
    "city": "臺北市",
    "district": "內湖區",
    "year": "93",
    "title": "無題",
    "author": "杜婷婷",
    "type": "繪畫",
    "location": "台北市民權東路6段91號／4F-2-2",
    "company": "台灣士林地方法院"
  },
  {
    "city": "臺北市",
    "district": "內湖區",
    "year": "93",
    "title": "無題",
    "author": "趙無極",
    "type": "繪畫",
    "location": "台北市民權東路6段91號／2F-2-1",
    "company": "台灣士林地方法院"
  },
  {
    "city": "臺北市",
    "district": "大安區",
    "year": "96",
    "title": "泳者",
    "author": "李佩珊老師帶領學生共同創作",
    "type": "壁畫鑲嵌",
    "location": "台北市大安區臥龍街129號大安國小游泳池側邊",
    "company": "臺北市大安區大安國民小學"
  },
  {
    "city": "臺北市",
    "district": "中山區",
    "year": "58",
    "title": "從農業社會到工業社會",
    "author": "顏水龍",
    "type": "壁畫鑲嵌、馬賽克",
    "location": "台北市中山區劍潭公園",
    "company": "臺北市政府工務局公園路燈工程管理處"
  },
  {
    "city": "臺北市",
    "district": "大安區",
    "year": "2014",
    "title": "和諧交響詩  Symphony",
    "author": "岩本八千代、渡部克己   Yachiyo  Iwamoto,    Katsumi   Watanabe",
    "type": "鑲嵌(馬賽克、玻璃)",
    "location": "臺北市大安區信義路三段147巷17弄4號－財團法人臺灣民主基金會一樓大廳玻璃帷幕位置",
    "company": "外交部"
  },
  {
    "city": "臺北市",
    "district": "萬華區",
    "year": "2013",
    "title": "華彩綻放",
    "author": "林長幸",
    "type": "平面：數位影像、立體：雕塑；同時包含立體與平面兩種以上類型",
    "location": "臺北市萬華區東園街65號－大門前左邊草地及大廳左側牆面",
    "company": "交通部公路總局"
  },
  {
    "city": "臺北市",
    "district": "萬華區",
    "year": "2013",
    "title": "運轉相生",
    "author": "林長幸",
    "type": "平面：數位影像、立體：雕塑；同時包含立體與平面兩種以上類型",
    "location": "臺北市萬華區東園街65號－大門前左邊草地及大廳左側牆面",
    "company": "交通部公路總局"
  },
  {
    "city": "臺北市",
    "district": "信義區",
    "year": "2013",
    "title": "衍‧盎然     Evolve‧Exuberance",
    "author": "徐永旭    Hsu Yunghsu",
    "type": "垂吊及壁掛造形",
    "location": "臺北市信義區菸廠路88號－辦公室大廳牆面及廊道端景",
    "company": "臺北市政府文化局"
  },
  {
    "city": "臺北市",
    "district": "信義區",
    "year": "2013",
    "title": "源圓     The Circular Origin",
    "author": "黃蘭雅   Huang Lan-Ya",
    "type": "垂吊及壁掛造形",
    "location": "臺北市信義區菸廠路88號－挑空中庭植生牆",
    "company": "臺北市政府文化局"
  },
  {
    "city": "臺北市",
    "district": "信義區",
    "year": "2013",
    "title": "野性的寓言    Fable of the wild",
    "author": "席時斌     Hsi Shih-Pin",
    "type": "雕塑",
    "location": "臺北市信義區菸廠路88號－文化廣場",
    "company": "臺北市政府文化局"
  },
  {
    "city": "臺北市",
    "district": "士林區",
    "year": "2012",
    "title": "人文薈萃    Convergence of Learning",
    "author": "李億勳   Lee Yi-hsun",
    "type": "鑲嵌(馬賽克、玻璃)",
    "location": "臺北市士林區中正路345號－綜合大樓 一樓 風雨操場 左側牆面",
    "company": "臺北市士林區士林國民中學"
  },
  {
    "city": "臺北市",
    "district": "士林區",
    "year": "2012",
    "title": "夢想發射器   Dream Launcher",
    "author": "李明道   Akibo Lee",
    "type": "垂吊及壁掛造形",
    "location": "臺北市士林區中正路345號－綜合大樓 一樓 風雨操場 周邊空間環境及右側牆面",
    "company": "臺北市士林區士林國民中學"
  },
  {
    "city": "臺北市",
    "district": "士林區",
    "year": "2012",
    "title": "超越限制 Pushing the Boundaries",
    "author": "李億勳   Lee Yi-hsun",
    "type": "鑲嵌(馬賽克、玻璃)",
    "location": "臺北市士林區中正路345號－綜合大樓 一樓 風雨操場 左側牆面",
    "company": "臺北市士林區士林國民中學"
  },
  {
    "city": "臺北市",
    "district": "士林區",
    "year": "2013",
    "title": "求理子",
    "author": "李國雄",
    "type": "雕塑",
    "location": "臺北市士林區中正路510號－學生活動中心半戶外空間",
    "company": "臺北市立陽明高級中學"
  },
  {
    "city": "臺北市",
    "district": "士林區",
    "year": "2013",
    "title": "三樂花",
    "author": "李國雄",
    "type": "雕塑",
    "location": "臺北市士林區中正路510號－中庭花園側邊",
    "company": "臺北市立陽明高級中學"
  },
  {
    "city": "臺北市",
    "district": "士林區",
    "year": "2014",
    "title": "方的立足點   Standpoint of the Square",
    "author": "李良仁  Liang-Jen Lee",
    "type": "雕塑",
    "location": "臺北市士林區文林路725號－戶外草坪開放空間",
    "company": "臺北高等行政法院"
  },
  {
    "city": "臺北市",
    "district": "士林區",
    "year": "2014",
    "title": "圓的擴散    Expanding of the Circle",
    "author": "蔡文慶   Wen-Ching Tsai",
    "type": "雕塑",
    "location": "臺北市士林區文林路725號－主要入口挑空處",
    "company": "臺北高等行政法院"
  },
  {
    "city": "臺北市",
    "district": "士林區",
    "year": "2014",
    "title": "對話之門   Gateway to Dialogue",
    "author": "李良仁   Liang-Jen Lee",
    "type": "雕塑",
    "location": "臺北市士林區文林路725號－主要入口挑空處",
    "company": "臺北高等行政法院"
  },
  {
    "city": "臺北市",
    "district": "士林區",
    "year": "2014",
    "title": "喜悅圓滿的樹    Tree of Sublime Joy",
    "author": "官月淑    Yue-Shu Guan",
    "type": "雕塑",
    "location": "臺北市士林區文林路725號－主要入口挑空處",
    "company": "臺北高等行政法院"
  },
  {
    "city": "臺北市",
    "district": "松山區",
    "year": "2013",
    "title": "希望未來城     City of Future Hope",
    "author": "葛菲雅奇視像空間設計有限公司",
    "type": "壁畫",
    "location": "台北市南京東路五段237號－穿堂層往出入口端牆",
    "company": "台北市政府捷運工程局"
  },
  {
    "city": "臺北市",
    "district": "松山區",
    "year": "2013",
    "title": "金融華爾街  Glamour and Glitz",
    "author": "葛菲雅奇視像空間設計有限公司",
    "type": "壁畫",
    "location": "台北市南京東路五段237號－穿堂層往出入口端牆",
    "company": "台北市政府捷運工程局"
  },
  {
    "city": "臺北市",
    "district": "松山區",
    "year": "2013",
    "title": "時尚樂活網  Web of Fashion and Deligh",
    "author": "葛菲雅奇視像空間設計有限公司",
    "type": "壁畫",
    "location": "台北市南京東路五段237號－穿堂層往出入口端牆",
    "company": "台北市政府捷運工程局"
  },
  {
    "city": "臺北市",
    "district": "松山區",
    "year": "2013",
    "title": "綠色叢林心      Green Heart of the Urban Junglet",
    "author": "葛菲雅奇視像空間設計有限公司",
    "type": "壁畫",
    "location": "台北市南京東路五段237號－穿堂層往出入口端牆",
    "company": "台北市政府捷運工程局"
  },
  {
    "city": "臺北市",
    "district": "大安區",
    "year": "2012",
    "title": "大安之花  Daan Flower",
    "author": "Pete Beeman",
    "type": "",
    "location": "臺北市大安區信義路三段100號---大安森林公園站--車站西側空橋旁廣場",
    "company": "臺北市政府捷運工程局"
  },
  {
    "city": "臺北市",
    "district": "大安區",
    "year": "2012",
    "title": "秋葉旅人    Autumn Leaf Travelers",
    "author": "Yvan Mauger",
    "type": "",
    "location": "臺北市大安區信義路三段100號---大安森林公園站--環形迴廊牆面",
    "company": "臺北市政府捷運工程局"
  },
  {
    "city": "臺北市",
    "district": "大安區",
    "year": "2012",
    "title": "春光乍現    Spring Light Appears",
    "author": "林舜龍    Lin Shuen-Long",
    "type": "",
    "location": "臺北市大安區信義路三段100號---大安森林公園站--陽光大廳與水瀑廣場",
    "company": "臺北市政府捷運工程局"
  },
  {
    "city": "臺北市",
    "district": "大安區",
    "year": "2012",
    "title": "四季     The Four Seasons",
    "author": "柴清文     Kiyofumi Shiba",
    "type": "",
    "location": "臺北市大安區信義路三段100號---大安森林公園站--穿堂層北側牆面",
    "company": "臺北市政府捷運工程局"
  },
  {
    "city": "臺北市",
    "district": "大安區",
    "year": "2012",
    "title": "飛天傳奇    Flying Legend",
    "author": "賴純純    Lai Tsun Tsun",
    "type": "",
    "location": "臺北市大安區信義路4段2號---大安站---轉換層電扶梯前南側牆面",
    "company": "臺北市政府捷運工程局"
  },
  {
    "city": "臺北市",
    "district": "大安區",
    "year": "2012",
    "title": "水城臺北     Water City Taipei",
    "author": "吳耿禎     Jam Wu",
    "type": "",
    "location": "臺北市大安區住安里信義路4段212之1號---信義安和站---穿堂層付費區與非付費區分隔護欄",
    "company": "臺北市政府捷運工程局"
  },
  {
    "city": "臺北市",
    "district": "中山區",
    "year": "2011",
    "title": "守護  Guardians",
    "author": "劉丁讚 Liu Ting-tsan",
    "type": "傢俱設施(含識別系統、座椅、燈具)",
    "location": "台北市中山區北安路389號－北安路人行道",
    "company": "國防部空軍司令部"
  },
  {
    "city": "臺北市",
    "district": "中山區",
    "year": "2011",
    "title": "飛行印象十二式    Flying-12 Images",
    "author": "簡明輝    Chien Ming-hui",
    "type": "同時包含立體與平面兩種以上類型",
    "location": "台北市中山區北安路389號－行政大檈前方左右二側",
    "company": "國防部空軍司令部"
  },
  {
    "city": "臺北市",
    "district": "中山區",
    "year": "2011",
    "title": "捍衛領空  Defending Air Space",
    "author": "林建佑、林韋佑、蘇家賢  Lin Chien-you, Lin Wei-you, Su  Chia-hsien",
    "type": "同時包含立體與平面兩種以上類型",
    "location": "台北市中山區北安路389號－行政大樓東、西側梯廳",
    "company": "國防部空軍司令部"
  },
  {
    "city": "臺北市",
    "district": "中山區",
    "year": "2011",
    "title": "御風而上  Riding High on the Wind",
    "author": "林柏瑞  Lin Po-jui",
    "type": "垂吊及壁掛造形",
    "location": "台北市中山區北安路389號－行政大樓一樓入口大廳",
    "company": "國防部空軍司令部"
  },
  {
    "city": "臺北市",
    "district": "中山區",
    "year": "2011",
    "title": "造飛機  Making Planes",
    "author": "劉亦豪 Liu Yi-hao",
    "type": "傢俱設施(含識別系統、座椅、燈具)",
    "location": "台北市中山區北安路389號－北安路人行道",
    "company": "國防部空軍司令部"
  },
  {
    "city": "臺北市",
    "district": "中山區",
    "year": "2010",
    "title": "愛、希望與飛翔  Love, Hope and Flying",
    "author": "林建榮 Ln Chien-jung",
    "type": "雕塑、傢俱設施(含識別系統、座椅、燈具)",
    "location": "台北市中山區北安路389號－北安路崗哨、通北街崗哨、力行新村小公園",
    "company": "國防部空軍司令部"
  },
  {
    "city": "臺北市",
    "district": "中山區",
    "year": "2011",
    "title": "雷虎沖天  Thunder Tigers in the Sky",
    "author": "羅傑‧顧鐸 Roger Gaudreau",
    "type": "雕塑",
    "location": "台北市中山區北安路389號－北安路及通北街口",
    "company": "國防部空軍司令部"
  },
  {
    "city": "臺北市",
    "district": "中山區",
    "year": "2011",
    "title": "薪火相傳、夢想與飛翔  Glorious Tradition, Dreams and Flght",
    "author": "蒲浩明 Pu Hao-ming",
    "type": "雕塑",
    "location": "台北市中山區北安路389號－北安路人行道內凹半橢圓空間",
    "company": "國防部空軍司令部"
  },
  {
    "city": "臺北市",
    "district": "中山區",
    "year": "2011",
    "title": "鐵翼凌雲  Steel Wings in the Clouds",
    "author": "名匠設計室內裝修有限公司  Craftsmen International Design Co.",
    "type": "同時包含立體與平面兩種以上類型",
    "location": "台北市中山區北安路389號－行政大樓一樓部史館",
    "company": "國防部空軍司令部"
  },
  {
    "city": "臺北市",
    "district": "南港區",
    "year": "",
    "title": "生之頌    Ode of Life",
    "author": "李昀珊    Yun-Shan Lee",
    "type": "平面其他(平面其他技法媒材或同時擁有上述兩種以上平面形式之作品)",
    "location": "臺北市南港區研究院路二段128號－基因轉殖植物專用溫室入口壁面",
    "company": "中央研究院"
  },
  {
    "city": "臺北市",
    "district": "大安區",
    "year": "2011",
    "title": "教室裡的地球     Earth in the Classroom",
    "author": "劉國滄    Kuo-Chang Liu",
    "type": "",
    "location": "臺北市大安區羅斯福路四段1號－國立臺灣大學博雅教學大樓東側穿廊",
    "company": "國立臺灣大學"
  },
  {
    "city": "臺北市",
    "district": "北投區",
    "year": "2013",
    "title": "守著陽光    守著幸福       Delight in Sunlght",
    "author": "林昭慶      Lin Chao-Ching",
    "type": "立體其他：平面其他技法媒材或同時擁有上述兩種以上平面形式之作品",
    "location": "臺北市北投區中和街2號－臺北市政府觀光醫療暨健康保健中心前方廣場",
    "company": "臺北市政府衛生局"
  },
  {
    "city": "臺北市",
    "district": "文山區",
    "year": "2014",
    "title": "層層淬練  Refinement",
    "author": "陳宏誠、林育正、張戴欽     Hung-cheng Chen,    Yu-zheng Lin,     Dai-chin Chang",
    "type": "雕塑、垂吊及壁掛造形",
    "location": "臺北市文山區木柵路一段76號－大門無障礙坡道",
    "company": "中華民國考選部(台北市文山區試院路1-1號)"
  },
  {
    "city": "臺北市",
    "district": "大安區",
    "year": "92",
    "title": "飲水思源",
    "author": "陳正勳",
    "type": "雕塑",
    "location": "台北市羅斯福路四段83號／尊賢館和學生第二活動中心中間花台前方地坪",
    "company": "－"
  },
  {
    "city": "臺北市",
    "district": "文山區",
    "year": "",
    "title": "Hi!LIFE",
    "author": "簡明輝 Chien Ming-hui",
    "type": "",
    "location": "新北市新店區寶興路70巷7號 -- 木柵路四段96-98號間的人行道與公車亭區域",
    "company": "臺北市政府文化局"
  },
  {
    "city": "臺北市",
    "district": "士林區",
    "year": "2013",
    "title": "真、善、美 The true, the Good and the Beautiful",
    "author": "許宗傑 Hsu Tsung-Chieh",
    "type": "",
    "location": "臺北市士林區文林路731號 -- 大廳一樓挑高區",
    "company": "法官學院(改制前為「司法院司法人員研習所」)"
  },
  {
    "city": "臺北市",
    "district": "士林區",
    "year": "2013",
    "title": "學無止境--借古喻今 Learning Never Ends",
    "author": "林章湖、陳浚豪 Lin Chang-Hu & Chen Chun-Hao",
    "type": "",
    "location": "臺北市士林區文林路731號 -- 蛋型會議室外圓弧牆面",
    "company": "法官學院(改制前為「司法院司法人員研習所」)"
  },
  {
    "city": "臺北市",
    "district": "士林區",
    "year": "2013",
    "title": "懸照 Suspended Mirrors",
    "author": "柯濬彥 Ker Chun-Yan",
    "type": "",
    "location": "臺北市士林區文林路731號 -- 二至四樓樓梯間天花板",
    "company": "法官學院(改制前為「司法院司法人員研習所」)"
  },
  {
    "city": "臺北市",
    "district": "中正區",
    "year": "2014",
    "title": "自然‧物‧語 -- 自然之舞 Natural ‧ Ware ‧ Culture -- Dance of Nature",
    "author": "吳建福  Wu Chien-Fu",
    "type": "鑲嵌(馬賽克、玻璃)、浮雕",
    "location": "台北市和平西路100號 -- 大門右側壁面",
    "company": "行政院農業委員會動植物防疫檢疫局"
  },
  {
    "city": "臺北市",
    "district": "中正區",
    "year": "2014",
    "title": "自然‧物‧語 -- 時間之書  Natural ‧ Ware ‧ Culture -- Book of Time",
    "author": "黃玉英  Yu-Ying Huang",
    "type": "平面其他(立體其他技法媒材或同時擁有上述兩種以上立體形式之作品)",
    "location": "台北市和平西路100號 -- 一樓大廳處之牆面",
    "company": "行政院農業委員會動植物防疫檢疫局"
  },
  {
    "city": "臺北市",
    "district": "中正區",
    "year": "2014",
    "title": "自然‧物‧語 -- 森之舞  Natural ‧ Ware ‧ Culture -- Dance of the Forest",
    "author": "Edwin Cheong",
    "type": "雕塑、立體其他(立體其他技法媒材或同時擁有上述兩種以上立體形式之作品)",
    "location": "台北市和平西路100號 -- 大樓靠近和平西路二段側面之通道區域",
    "company": "行政院農業委員會動植物防疫檢疫局"
  },
  {
    "city": "臺北市",
    "district": "松山區",
    "year": "2014",
    "title": "河流彎曲之處，域見繁花光穹  Winding River, Flourishing Flowers, Dome of Light",
    "author": "江洋輝，麻粒國際文化試驗股份有限公司   Yang-huei Chiang, VERY Conception Corporation",
    "type": "雕塑",
    "location": "臺北市八德路四段742號  -- 捷運松山線松山站B1大廳非付費區挑空天花區域",
    "company": "台北市政府捷運工程局"
  },
  {
    "city": "臺北市",
    "district": "內湖區",
    "year": "2015",
    "title": "《運轉》Function",
    "author": "羅傑 Chieh Lo",
    "type": "雕塑",
    "location": "臺北市內湖區康寧路三段51號-設罝於南側中庭廣場",
    "company": "法務部行政執行署士林分署"
  },
  {
    "city": "臺北市",
    "district": "文山區",
    "year": "2014",
    "title": "漫步於四季之間--四季 A Stroll Amid the Four Seasons -- The Four Seasons",
    "author": "景山健 Kageyama Ken",
    "type": "雕塑",
    "location": "臺北市文山區指南路二段64號 -- 大學之道自強十舍景觀步道",
    "company": "國立政治大學"
  },
  {
    "city": "臺北市",
    "district": "文山區",
    "year": "2014",
    "title": "漫步於四季之間--下雨  A Stroll Amid the Four Seasons -- Rainy",
    "author": "黎志文 Lai Chi-Wan",
    "type": "雕塑",
    "location": "臺北市文山區指南路二段64號 -- 自強十舍中庭景觀、山下校區莊敬校舍前",
    "company": "國立政治大學"
  },
  {
    "city": "臺北市",
    "district": "松山區",
    "year": "2014",
    "title": "門 Doors",
    "author": "何桂育與帕特里斯‧幕尼葉 Kuei Yu Ho & Patrice MUGNIER",
    "type": "",
    "location": "臺北市南京東路4段12之1號 -- 捷運站口街角廣場(1座)；北寧路側退縮人行步道(1座)；二樓疏散平台(1座)，共計3",
    "company": "臺北市政府警察局、臺北市政府捷運工程局"
  },
  {
    "city": "臺北市",
    "district": "松山區",
    "year": "2014",
    "title": "推進   Moving Forward",
    "author": "洪東祿    Hung Tung-Lu",
    "type": "",
    "location": "臺北市捷運松山線台北小巨蛋站 -- 穿堂層往月台層之中間層西側樓梯／電扶梯前方牆面，共2面牆",
    "company": "台北市政府捷運工程局"
  },
  {
    "city": "臺北市",
    "district": "松山區",
    "year": "2014",
    "title": "啟動密碼    Energy Activation Code",
    "author": "袁廣鳴    Yuan Goang-Ming",
    "type": "同時包含立體與平面兩種以上類型",
    "location": "臺北市捷運松山線台北小巨蛋站 -- 穿堂層往月台層之中間層東側樓梯／電扶梯前方牆面，共2面牆",
    "company": "台北市政府捷運工程局"
  },
  {
    "city": "臺北市",
    "district": "士林區",
    "year": "2014",
    "title": "台北尋寶隊    Taipei Treasure Hunting Team",
    "author": "李明道    Akibo Lee",
    "type": "雕塑",
    "location": "臺北市士林區承德路5段55號 -- 人口牆面，人口廣場，露台，牆面，天窗下方等園區各處",
    "company": "臺北市政府捷運工程局"
  },
  {
    "city": "臺北市",
    "district": "松山區",
    "year": "2015",
    "title": "彩虹國度 -- 彩虹灣的故事 The Story of Rainbow Bay",
    "author": "吳建福 Chien-fu, Wu",
    "type": "雕塑",
    "location": "臺北市松山區八德路四段746號 -- 臺北市松山國小校門入口",
    "company": "臺北市松山區松山國小"
  },
  {
    "city": "臺北市",
    "district": "松山區",
    "year": "2015",
    "title": "彩虹國度 -- 河彎  Rivers",
    "author": "王幸玉    Wang Shin-Yu",
    "type": "浮雕",
    "location": "臺北市松山區八德路四段746號 -- ",
    "company": "臺北市松山區松山國小"
  },
  {
    "city": "臺北市",
    "district": "松山區",
    "year": "2015",
    "title": "彩虹國度 -- 轉折點  Turning Point",
    "author": "王幸玉    Wang Shin-Yu",
    "type": "傢俱設施(含指標系統、座椅、燈具)",
    "location": "臺北市松山區八德路四段746號 -- ",
    "company": "臺北市松山區松山國小"
  },
  {
    "city": "臺北市",
    "district": "松山區",
    "year": "2015",
    "title": "彩虹國度 -- 學習之眼  Eyes - Looking At The Nature Around You",
    "author": "鍾偉光    Edwin Cheong",
    "type": "雕塑",
    "location": "臺北市松山區八德路四段746號 -- 臺北市松山國小中庭廣場",
    "company": "臺北市松山區松山國小"
  },
  {
    "city": "臺北市",
    "district": "南港區",
    "year": "2015",
    "title": "區域一：夢想繽紛CODE●構向大未來   The Dream Weaver",
    "author": "李昀珊(昀珊國際創藝工作室)   Yun-Shan  Lee (Yun-Shan Creative Studio International)",
    "type": "雕塑、垂吊及壁掛形、傢俱設施(含指標系統、座椅、燈具)、鑲嵌(馬賽克、玻璃)",
    "location": "臺北市南港區舊莊街一段1號 -- 「活動中心」西南側立面外牆及校門後長等候區",
    "company": "臺北市南港區胡適國民小學"
  },
  {
    "city": "臺北市",
    "district": "南港區",
    "year": "2015",
    "title": "區域二：好書為伴  Books as good friends",
    "author": "李明道     Akibo Lee",
    "type": "",
    "location": "臺北市南港區舊莊街一段1號",
    "company": "臺北市南港區胡適國民小學"
  },
  {
    "city": "臺北市",
    "district": "中山區",
    "year": "",
    "title": "大愛無礙 -- 心靈之窗 Love effect -- Window to the Soul",
    "author": "林昭慶  Lin Chao-Ching",
    "type": "雕塑、垂吊及壁掛造形 ",
    "location": "臺北市中山區長安西路15號 -- 臨長安西路5巷花台前右側牆面",
    "company": "臺北市政府社會局"
  },
  {
    "city": "臺北市",
    "district": "中山區",
    "year": "",
    "title": "大愛無礙 -- 美麗的飄遊",
    "author": "林昭慶  Lin Chao-Ching",
    "type": "垂吊及壁掛造形",
    "location": "臺北市中山區長安西路15號 -- 臨長西路5巷花台前右側牆面",
    "company": "臺北市政府社會局"
  },
  {
    "city": "臺北市",
    "district": "大安區",
    "year": "2015",
    "title": "陽光密碼    The Sunshine Codes",
    "author": "王存武    Twinwood Wang",
    "type": "立體其他(立體其他技法媒材或同時擁有上述兩種以上立體形式之作品)",
    "location": "台北市大安區基隆路四段43號",
    "company": "國立臺灣科技大學"
  },
  {
    "city": "臺北市",
    "district": "北投區",
    "year": "2014",
    "title": "劇場‧聚場  Gathering Place ",
    "author": "楊尊智  Yang Tsun-Chih",
    "type": "雕塑",
    "location": "臺北市北投區學園路1號 -- 戲劇舞蹈大樓2、3樓中庭",
    "company": "國立臺北藝術大學"
  },
  {
    "city": "臺北市",
    "district": "北投區",
    "year": "2014",
    "title": "場景  Scene",
    "author": "邱昭財  Chao-Tsai Chiu",
    "type": "浮雕",
    "location": "臺北市北投區學園路1號 -- 戲劇舞蹈大樓前側門外牆壁面",
    "company": "國立臺北藝術大學"
  },
  {
    "city": "臺北市",
    "district": "大安區",
    "year": "2013",
    "title": "理學對談  Dailogue of Reason",
    "author": "郭弘坤  Kuo Hung-Kun",
    "type": "雕塑",
    "location": "台北市大安區環境研究大樓",
    "company": "國立臺灣大學"
  },
  {
    "city": "臺北市",
    "district": "大同區",
    "year": "2016",
    "title": "書香樹人   The Gateway of Learning",
    "author": "蘇福隆    Su Fu-Lung",
    "type": "圍籬藝術、鏤雕設計",
    "location": "臺北市大同區哈密街47號 --  北側門",
    "company": "臺北市大同區大龍國民小學"
  },
  {
    "city": "臺北市",
    "district": "大同區",
    "year": "2016",
    "title": "大龍的藝想視界  Dalong in Wonderland",
    "author": "蘇福隆    Su Fu-Lung",
    "type": "壁畫(含以鑲嵌、拼貼製作之壁畫",
    "location": "臺北市大同區哈密街47號 -- 五號梯及牆面",
    "company": "臺北市大同區大龍國民小學"
  },
  {
    "city": "臺北市",
    "district": "松山區",
    "year": "2016",
    "title": "有夢飛翔　Dream in Flight",
    "author": "趙南開    Nan-Kai, Chao",
    "type": "雕塑",
    "location": "台北市松山區民權東路5段1號 -- 懷德樓與綜合大樓側門通道",
    "company": "臺北市松山區三民國民小學"
  },
  {
    "city": "臺北市",
    "district": "大同區",
    "year": "2016",
    "title": "躍大龍‧樂學園  Leaping Dragon, Happy Campus",
    "author": "李昀珊  (昀珊國際創藝工作室)   Yun-Shan  (Yun-Shan Creative Studio International)",
    "type": "雕塑",
    "location": "臺北市大同區哈密街47號 -- 校門入口西側綠地",
    "company": "臺北市大同區大龍國民小學"
  },
  {
    "city": "臺北市",
    "district": "大安區",
    "year": "2015",
    "title": "光明來時   When the Bright Light Arrives",
    "author": "楊春森   Yang, Chun-Sen",
    "type": "垂吊及壁掛造形",
    "location": "臺北市和平東路3段129號－入口大廳正面壁面",
    "company": "法務部調查局"
  },
  {
    "city": "臺北市",
    "district": "南港區",
    "year": "2014",
    "title": "回到太初   Return to Genesis",
    "author": "楊英風   Yu Yu Yang",
    "type": "雕塑",
    "location": "台北市南港區研究院路2段128號－溫室大樓正前方南側草地上",
    "company": "中央研究院"
  },
  {
    "city": "臺北市",
    "district": "大安區",
    "year": "2011",
    "title": "愛在大地",
    "author": "許禮憲",
    "type": "雕塑",
    "location": "台北市基隆路四段43號",
    "company": "國立臺灣科技大學"
  },
  {
    "city": "臺北市",
    "district": "內湖區",
    "year": "",
    "title": "《觀》Vision",
    "author": "羅傑 Chieh Lo",
    "type": "雕塑",
    "location": "臺北市內湖區康寧路三段51號-設置於南側門入口右側牆面",
    "company": "法務部行政執行署士林分署"
  },
  {
    "city": "臺北市",
    "district": "內湖區",
    "year": "2015",
    "title": "永恆的信念",
    "author": "景茂藝術有限公司,黃景茂",
    "type": "陶瓷",
    "location": "台北市內湖區康寧路三段51號",
    "company": "法務部行政執行署士林分署"
  },
  {
    "city": "臺北市",
    "district": "南港區",
    "year": "2014",
    "title": "《健康之門》 Gateway to Health",
    "author": "楊柏林 Yang Po-lin",
    "type": "雕塑",
    "location": "台北市南港區忠孝東路六段488號",
    "company": "衛生福利部"
  },
  {
    "city": "臺北市",
    "district": "南港區",
    "year": "2014",
    "title": "《靈魂之窗》 Window to the Soul",
    "author": "余燈銓 Yu Deng-chuan",
    "type": "雕塑",
    "location": "台北市南港區忠孝東路六段488號 --- 衛福部中庭區水池",
    "company": "衛生福利部"
  },
  {
    "city": "臺北市",
    "district": "中正區",
    "year": "2016",
    "title": "明日校園藍圖  Campus of Tomorrow",
    "author": "吳瑪悧  Wu Mali",
    "type": "傢俱設施(含指標系統、座椅、燈具)",
    "location": "臺北市中正區重慶南路一段165號 --- 資源大樓學珠樓2樓圖書館入口外側",
    "company": "臺北市立第一女子高級中學"
  },
  {
    "city": "臺北市",
    "district": "文山區",
    "year": "2016",
    "title": "B區：文山的故事 / 流穿●美好時光     The Story of Wenshan / A Journey through Time",
    "author": "蔡文祥 / 葛菲雅奇視像空間設計有限公司     Tsai Wen-Hsyang / Grapharch Design Communications",
    "type": "雕塑",
    "location": "台北市文山區羅斯福路六段142巷3號：財政園區--景觀公園區",
    "company": "財政部國有財產署／華固建設股份有限公司"
  },
  {
    "city": "臺北市",
    "district": "文山區",
    "year": "2016",
    "title": "A區： 城市●華爾滋   Urban Waltz",
    "author": "宋璽德 / 藝譔堂國際策展藝術有限公司   Sung Hsi-te / Agora International Cultural Co., ltd.",
    "type": "雕塑",
    "location": "台北市文山區羅斯福路六段142巷1號 - - 政府辦公大樓前藝術人文水景區",
    "company": "財政部國有財產署／華固建設股份有限公司"
  },
  {
    "city": "臺北市",
    "district": "中正區",
    "year": "2016",
    "title": "南瓜  Pumpkin",
    "author": "草間彌生  Yayoi Kusama",
    "type": "雕塑",
    "location": "臺北市中正區市民大道三段2號 -- 三創生活園區藝文廣場",
    "company": "三創數位股份有限公司"
  },
  {
    "city": "臺北市",
    "district": "萬華區",
    "year": "2016",
    "title": "《聽，生命樹的葉子在歌唱》  The Tree of Life Sings",
    "author": "蔡文祥   Tsai Wen-Hsyang",
    "type": "雕塑、垂吊及壁掛造形",
    "location": "台北市萬華區內江街87號 -- 大門入口雨遮及大門柱",
    "company": "國立臺灣大學醫學院附設醫院北護分院"
  },
  {
    "city": "臺北市",
    "district": "中正區",
    "year": "105",
    "title": "魚木的心跳   The Heartbeat",
    "author": "劉柏宏   Po-Hung Liu",
    "type": "雕塑、傢俱設施(含指標系統、座椅、燈具)",
    "location": "台北市中正區羅斯福路三段283巷30號---加羅林魚木樹下空間",
    "company": "台灣電力股份有限公司營建處"
  },
  {
    "city": "臺北市",
    "district": "中正區",
    "year": "105",
    "title": "日光域  Brightly Shines the Sun",
    "author": "華麗邏輯有限公司  Luxury Logi Co.",
    "type": "燈光控制裝置",
    "location": " 台北市中正區羅斯福路三段242號---總管理處外牆4至6樓處",
    "company": "台灣電力股份有限公司營建處"
  },
  {
    "city": "臺北市",
    "district": "中正區",
    "year": "105",
    "title": "樹與霧   Mistily Rain the Trees",
    "author": "豪華朗機工     LuxuryLogico",
    "type": "水霧雕塑",
    "location": " 台北市中正區羅斯福路三段242號---總管理處台電廣場",
    "company": "台灣電力股份有限公司營建處"
  },
  {
    "city": "臺北市",
    "district": "中正區",
    "year": "105",
    "title": "河飄風     Flowingly Blows the Breeze",
    "author": "豪華朗機工      LuxuryLogico",
    "type": "風動光能裝置",
    "location": "台北市中正區羅斯福路三段242號---總管理處主樓前方光能飄帶上方",
    "company": "台灣電力股份有限公司營建處"
  },
  {
    "city": "臺北市",
    "district": "中正區",
    "year": "105",
    "title": "鏡山水     Poetically Mirrors the Landscape",
    "author": "豪華朗機工      LuxuryLogico",
    "type": "陶瓷地景",
    "location": "台北市中正區羅斯福路三段242號--- 總管理處副樓前方",
    "company": "台灣電力股份有限公司營建處"
  },
  {
    "city": "臺北市",
    "district": "中正區",
    "year": "105",
    "title": "城市光譜      City Spectrum",
    "author": "張立人        CHANG, Li-Ren",
    "type": "光雕投影",
    "location": "台北市中正區羅斯福路三段242號---總管理處大廳主牆",
    "company": "台灣電力股份有限公司營建處"
  },
  {
    "city": "臺北市",
    "district": "中正區",
    "year": "105",
    "title": "太陽之詩      Poetry of the Sun",
    "author": "豪華朗機工    LuxuryLogico",
    "type": "動能機械裝置",
    "location": "台北市中正區羅斯福路三段242號---台電總管理處大廳",
    "company": "台灣電力股份有限公司營建處"
  },
  {
    "city": "臺北市",
    "district": "中正區",
    "year": "105",
    "title": "電聲仿      Electro-Acoustic",
    "author": "王仲堃+噪咖事務所    WANG   Chung-Kun + noisekitchen",
    "type": "動能機械裝置",
    "location": "台北市中正區羅斯福路三段242號---台電總管理處大廳",
    "company": "台灣電力股份有限公司營建處"
  },
  {
    "city": "臺北市",
    "district": "中正區",
    "year": "",
    "title": "與自然來電   Replug into Nature",
    "author": "喻肇青+境群國際規劃設計顧問股份有限公司   Chao Yu and EDS International, inc.",
    "type": "國說規劃案",
    "location": "台北市中正區羅斯福路三段242號---台電總管理處戶外廣場",
    "company": "台灣電力股份有限公司營建處"
  },
  {
    "city": "臺北市",
    "district": "中正區",
    "year": "104",
    "title": "臺大藏珍閣     The Chamber of Uncanny Objects",
    "author": "鄧肯‧蒙弗特和臺大生策展(林紫葳、許淳涵、黃庭翰、章舒涵、陳晏、Saraliza Anzaldua)      Duncan Mounford and student curators form NTU",
    "type": "空間物件裝置",
    "location": "台北市中正區思源街18號飲水樓----二樓檔案展示室",
    "company": "國立臺灣大學"
  },
  {
    "city": "臺北市",
    "district": "大安區",
    "year": "104",
    "title": "《觀聽的邊境--微觀世界》(植/物/像)     At the Edge of Perception A Microscopic World (Flora Anima)",
    "author": "蔡宛璇     Wan-Shuen Tsai",
    "type": "數位影像",
    "location": "台北市大安區羅斯福路四段1號---植物標本館",
    "company": "國立臺灣大學"
  },
  {
    "city": "臺北市",
    "district": "大安區",
    "year": "104",
    "title": "《觀聽的邊境--翼手計畫》(((^..^)))     At the Edge of Perception:  Sounds of Wings",
    "author": "澎葉生     Yannick Dauby",
    "type": "聲音裝置",
    "location": "台北市大安區羅斯福路四段1號---動物標本館",
    "company": "國立臺灣大學"
  },
  {
    "city": "臺北市",
    "district": "大安區",
    "year": "104",
    "title": "光拓臺大--臺大劇場(一)      NTU Lightscape  - NTU Theatre(I)",
    "author": "黃建銘    Chien-Ming Huang",
    "type": "數位影像",
    "location": "台北市大安區羅斯福路四段1號---戲劇系系館",
    "company": "國立臺灣大學"
  },
  {
    "city": "臺北市",
    "district": "大安區",
    "year": "104",
    "title": "光拓臺大--臺大劇場(二)    NTU Lightscape    - NTU  Theatre (II)",
    "author": "黃建銘    Chien-Ming Huang",
    "type": "數位影像",
    "location": "台北市大安區羅斯福路四段1號---戲劇系系館",
    "company": "國立臺灣大學"
  },
  {
    "city": "臺北市",
    "district": "大安區",
    "year": "2015",
    "title": "光拓臺大--物理文物廳    Radiant Pioneering  - NTU Heritage Hall of Physics",
    "author": "黃建銘    Chien-Ming Huang",
    "type": "數位影像",
    "location": "台北市大安區羅斯福路四段1號---博雅教學館二樓",
    "company": "國立臺灣大學"
  },
  {
    "city": "臺北市",
    "district": "大安區",
    "year": "104",
    "title": "光拓臺大--磯永吉紀念室   NTU Lightscape  -  Eikichi Iso Memorial House",
    "author": "黃建銘    Chien-Ming Huang",
    "type": "數位影像",
    "location": "台北市大安區羅斯福路四段1號---博雅教學館二樓",
    "company": "國立臺灣大學"
  },
  {
    "city": "臺北市",
    "district": "大安區",
    "year": "104",
    "title": "光拓臺大—動物博物館    NTU Lightscape  -  Museum of Zoology",
    "author": "黃建銘    Chien-Ming Huang",
    "type": "數位影像輸出",
    "location": "台北市大安區羅斯福路四段1號---博雅教學館二樓",
    "company": "國立臺灣大學"
  },
  {
    "city": "臺北市",
    "district": "文山區",
    "year": "2016",
    "title": "B區：文山的故事    The Story of Wenshan",
    "author": "蔡文祥 / 葛菲雅奇視像空間設計有限公司     Tsai Wen-Hsyang / Grapharch Design Communications",
    "type": "雕塑",
    "location": "台北市文山區羅斯福路六段142巷3號：財政園區--景觀公園區",
    "company": "財政部國有財產署／華固建設股份有限公司"
  },
  {
    "city": "臺北市",
    "district": "南港區",
    "year": "2016",
    "title": "A區：全方位  Comprehensive Spectrum",
    "author": "羅傑  Chieh Lo",
    "type": "雕塑",
    "location": "臺北市南港區昆陽街165號---光華三路旁綠地",
    "company": "國防部軍備局生產製造中心第202廠"
  },
  {
    "city": "臺北市",
    "district": "南港區",
    "year": "2016",
    "title": "B區：光華現銳---攜銳    The Trenchant",
    "author": "簡明輝    Chien, Ming-hui",
    "type": "雕塑、傢俱設施(含指標系統、座椅、燈具)",
    "location": "臺北市南港區昆陽路165號---大門口左側",
    "company": "國防部軍備局生產製造中心第202廠"
  },
  {
    "city": "臺北市",
    "district": "南港區",
    "year": "2016",
    "title": "B區：光華現銳---威鎮     The Shield",
    "author": "簡明輝     Chien, Ming-hui",
    "type": "雕塑、傢俱設施(含指標系統、座椅、燈具)",
    "location": "臺北市南港區昆陽路165號---大門本體及門柱上方",
    "company": "國防部軍備局生產製造中心第202廠"
  },
  {
    "city": "臺北市",
    "district": "南港區",
    "year": "2016",
    "title": "C區：花現美好   Blossoms of Beauty",
    "author": "王秀杞    WANG, HSIU-CHI",
    "type": "垂吊及壁掛造型",
    "location": "臺北市南港區昆陽路165號---陳列館入口牆面外側",
    "company": "國防部軍備局生產製造中心第202廠"
  },
  {
    "city": "臺北市",
    "district": "南港區",
    "year": "2016",
    "title": "C區：閱讀 • 豐收    Reading, Abundant Harvest",
    "author": "王秀杞    WANG, HSIU-CHI",
    "type": "雕塑",
    "location": "臺北市南港區昆陽路165號---陳列館前方左右兩側草地",
    "company": "國防部軍備局生產製造中心第202廠"
  },
  {
    "city": "臺北市",
    "district": "南港區",
    "year": "2016",
    "title": "C區：希望與和平     Peace and Hope",
    "author": "王秀杞    WANG, HSIU-CHI",
    "type": "雕塑、傢俱設施(含指標系統、座椅、燈具)",
    "location": "臺北市南港區昆陽路165號---中餐廳外圍牆面暨前方空地",
    "company": "國防部軍備局生產製造中心第202廠"
  },
  {
    "city": "臺北市",
    "district": "南港區",
    "year": "2016",
    "title": "D區：漫步能量之間    Sauntering Between Energies",
    "author": "林舜龍    Lin Shuen Long",
    "type": "垂吊及壁掛造形、傢俱設施(含指標系統、座椅、燈具)",
    "location": "臺北市南港區昆陽路165號---第202廠與中研院間的防爆牆延伸至廣場草地",
    "company": "國防部軍備局生產製造中心第202廠"
  },
  {
    "city": "臺北市",
    "district": "北投區",
    "year": "2017",
    "title": "親親伙伴     Close Companions",
    "author": "姜憲明  Chiang Hsien-ming  、 陳麗杏   Chen Lee-Hsing",
    "type": "雕塑",
    "location": "臺北市北投區石牌路二段201號---門診入口前休憩活動空間",
    "company": "臺北榮民總醫院"
  },
  {
    "city": "臺北市",
    "district": "北投區",
    "year": "2017",
    "title": "花 • 源    Flower Source",
    "author": "林建佑 Lin Chien-you  、 林韋佑 Lin Wei-you",
    "type": "垂吊及壁掛造型",
    "location": "臺北市北投區石牌路二段201號---門診大廳一樓入口大廳挑高空間",
    "company": "臺北榮民總醫院"
  },
  {
    "city": "臺北市",
    "district": "北投區",
    "year": "2017",
    "title": "脈 • 動     Pulsation",
    "author": "林建佑 Lin Chien-you  、 林韋佑 Lin Wei-you",
    "type": "垂吊及壁掛造形",
    "location": "臺北市北投區石牌路二段201號---",
    "company": "臺北榮民總醫院"
  },
  {
    "city": "臺北市",
    "district": "北投區",
    "year": "2017",
    "title": "一凳六燈六方六圓六十椅        Bench x 1， Lights  x 6， Square x 6， Round x 6 + 60 Chairs",
    "author": "周育正    CHOU Yu-Cheng",
    "type": "傢俱設施(含指標系統、座椅、燈具)",
    "location": "臺北市北投區學園路1號",
    "company": "國立臺北藝術大學"
  },
  {
    "city": "臺北市",
    "district": "大安區",
    "year": "2017",
    "title": "希望之樹    Trees of Hope",
    "author": "胡棟民      Hu Tung Ming",
    "type": "雕塑",
    "location": "臺北市大安區敦南街76巷28號---入口廣場",
    "company": "臺北市政府教育局"
  },
  {
    "city": "臺北市",
    "district": "大安區",
    "year": "2017",
    "title": "探索心影     Explorations of the Mind",
    "author": "李昀珊       Lee Yun-Shan",
    "type": "垂吊及壁掛造形",
    "location": "臺北市大安區敦南街76巷28號---1~5F走廊牆面",
    "company": "臺北市政府教育局"
  },
  {
    "city": "臺北市",
    "district": "大安區",
    "year": "2017",
    "title": "快樂搖擺       Happy Swaying",
    "author": "趙國宗、許敬忠     Chao Kuo Tsung   ,    Ching Tsung Hsu",
    "type": "雕塑",
    "location": "臺北市大安區敦南街76巷28號---1F中庭、空中花園",
    "company": "臺北市政府教育局"
  },
  {
    "city": "臺北市",
    "district": "大安區",
    "year": "2017",
    "title": "探索之聲      The Sound of Discovery",
    "author": "蔡昆霖     Tsai Kun-Lin",
    "type": "雕塑",
    "location": "臺北市大安區敦南街76巷28號---和平籃球館1F",
    "company": "臺北市政府教育局"
  },
  {
    "city": "臺北市",
    "district": "內湖區",
    "year": "2017",
    "title": "網球之光       Pride of Tennis",
    "author": "林舜龍      Lin, Shuen-Long",
    "type": "雕塑",
    "location": "臺北市內湖區民權東路六段208號---臺北市網球中心民權東路六段戶外廣場",
    "company": "臺北市政府體育局"
  },
  {
    "city": "臺北市",
    "district": "士林區",
    "year": "2014",
    "title": "無敵小鼠     A Super Mousy Project",
    "author": "不二良      No2Good",
    "type": "雕塑",
    "location": "臺北市士林區美崙公園----美崙公園基河路側入口廣場",
    "company": "受贈機關：臺北市政府工務局公園路燈工程管理處"
  },
  {
    "city": "臺北市",
    "district": "北投區",
    "year": "2017",
    "title": "夢想山城I：共創山城       Mountain Town Imagining I: Art Together Now",
    "author": "陳宏誠•大瑪爾藝術設計有限公司      Chen Hung-cheng, Bigmore Art Design Co.",
    "type": "雕塑",
    "location": "臺北市北投區復興四路70號---校門口",
    "company": "臺北市立復興高級中學"
  },
  {
    "city": "臺北市",
    "district": "北投區",
    "year": "2017",
    "title": "夢想山城II：雲流山城      Mountain Town Imagining II: Flowing Clouds  ",
    "author": "陳宏誠•大瑪爾藝術設計有限公司      Chen Hung-cheng, Bigmore Art Design Co.",
    "type": "雕塑",
    "location": "臺北市北投區復興四路70號---入口廣場",
    "company": "臺北市立復興高級中學"
  },
  {
    "city": "臺北市",
    "district": "北投區",
    "year": "2017",
    "title": "夢想山城III：群藝山城       Mountain Town Imagining III: Creation Collective",
    "author": "陳宏誠•大瑪爾藝術設計有限公司      Chen Hung-cheng, Bigmore Art Design Co.",
    "type": "",
    "location": "臺北市北投區復興四路70號---後門",
    "company": "臺北市立復興高級中學"
  },
  {
    "city": "臺北市",
    "district": "大安區",
    "year": "2017",
    "title": "自強不息    Self-improvement",
    "author": "李再鈐   Tsai Chien Lee",
    "type": "雕塑",
    "location": "臺北市大安區羅斯福路四段1號---臺灣大學綜合教學館大門右側",
    "company": "國立臺灣大學"
  },
  {
    "city": "臺北市",
    "district": "北投區",
    "year": "2017",
    "title": "A案--生命的駐足與延伸　　Pause and Extension in Life",
    "author": "席時斌、曾紹博    Hsi Shih-Pin,   Tseng Shao-Po",
    "type": "雕塑",
    "location": "臺北市北投區立農街二段155號--設置於本校守仁樓無遮簷人行道",
    "company": "國立陽明大學"
  },
  {
    "city": "臺北市",
    "district": "北投區",
    "year": "2017",
    "title": "B案--大學 ‧  大尋     University, Universal",
    "author": "楊尊智    Yang Tsun-Chih",
    "type": "雕塑",
    "location": "臺北市北投區立農街二段155號--設置於本校教師宿舍(山麓村)",
    "company": "國立陽明大學"
  },
  {
    "city": "臺北市",
    "district": "中正區",
    "year": "2018",
    "title": "A案---疊合現在及過去-臺北西區虛擬實境Beimen VR Tour     (Seeing the Past through the Present: Virtual Reality Tour of West Taipei-the North Gate)",
    "author": "國立臺北科技大學設計學院互動設計系曹筱玥教授  Prof. Saiau-Yue Tsau, Department of Interaction Design, College of Design, National Taipei University of Technology",
    "type": "數位互動裝置(AR/VR)   -   Digital interactive installaction (augmented reality/virtual reality)",
    "location": "以臺北西區(大同區、萬華區、中正區)為創作範圍。",
    "company": "臺北市政府文化局"
  },
  {
    "city": "臺北市",
    "district": "大安區",
    "year": "2018",
    "title": "植物文樣--臺灣荼計畫    Patterns of Plants -  Taiwan Tea Project",
    "author": "藤枝守      Mamour Fujieda",
    "type": "音樂",
    "location": "臺北市中正區思源街18號 飲水樓--二樓檔案展示室(臺大藏珍閣)",
    "company": "國立臺灣大學"
  },
  {
    "city": "臺北市",
    "district": "大安區",
    "year": "2018",
    "title": "一種資訊流的觀看方式V3          (Wifi Data Surfing Visualization  -  Date. Wave V3)    ",
    "author": "張博智   Poki Chang",
    "type": "數位影像",
    "location": "臺北市中正區思源街18號 飲水樓--二樓檔案展示室(臺大藏珍閣)",
    "company": "國立臺灣大學"
  },
  {
    "city": "臺北市",
    "district": "大安區",
    "year": "2018",
    "title": "霧中仙人長大 Fog / Cactus / Grow up",
    "author": "李明學James Ming-Hsueh Lee",
    "type": "雕塑",
    "location": "臺北市大安區信義路三段143號---學校大門內偏東側之花圃",
    "company": "國立臺灣師範大學附屬高級中學"
  },
  {
    "city": "臺北市",
    "district": "大安區",
    "year": "",
    "title": "宇宙學眾神殿   Pantheon of Cosmology",
    "author": "陳不燊、莊清泰   Pisin Chen, Ching-Tai Chuang",
    "type": "雕塑",
    "location": "臺灣大學宇宙學中心大學(臺北市羅斯福路4段1號)---臺灣大學宇宙學大樓中庭建物1樓室內公共空間",
    "company": "受贈單位：國立臺灣大學"
  },
  {
    "city": "臺北市",
    "district": "內湖區",
    "year": "",
    "title": "洞 ‧ 洞  The Hole",
    "author": "林舜龍   Lin, Shuen-Long",
    "type": "立體其他(立體其他技法媒材或同時擁有上述兩種以上立體形式之作品)",
    "location": "臺北市內湖區行善路179號---校園入口廣場、幼稚園、圖書館、操場旁、校內草坡等。",
    "company": "臺北市內湖區潭美國民小學"
  },
  {
    "city": "臺北市",
    "district": "北投區",
    "year": "2018",
    "title": "蘊養之源   Source",
    "author": "馬君輔、賴亭玟 Ma Chun-Fu,  Lai Ting-Wen",
    "type": "雕塑、傢俱設施(含指標系統、座椅、燈具)",
    "location": "台北市北投區文林北路77號---正門圖書館前",
    "company": "臺北市立中正高級中學"
  },
  {
    "city": "臺北市",
    "district": "文山區",
    "year": "2018",
    "title": "A案：植物譜書  Plant Record / Earth Book",
    "author": "笠原由起子   Yukiko KASAHARA",
    "type": "浮雕、雕塑",
    "location": "臺北市文山區木柵路一段321號---圖書館內外公共空間",
    "company": "臺北市文山區永建國民小學"
  },
  {
    "city": "臺北市",
    "district": "文山區",
    "year": "2018",
    "title": "B案：微型樂園   Mini Paradise",
    "author": "三三創設工作室：蔡燿丞 /  葉之秀 33artstyle:  Tsai, Yao-Cheng / Yeh, Chih-Hsius",
    "type": "雕塑",
    "location": "臺北市文山區木柵路一段321號---穿堂",
    "company": "臺北市文山區永建國民小學"
  },
  {
    "city": "臺北市",
    "district": "大同區",
    "year": "2018",
    "title": "PUSH",
    "author": "注設工作室  PIMIYA",
    "type": "多媒材立體互動裝置",
    "location": "臺北市承德路三段336號---新建校舍間文學走廊、大門中庭",
    "company": "臺北市立明倫高級中學"
  },
  {
    "city": "臺北市",
    "district": "中正區",
    "year": "2018",
    "title": "B案---給自己的情書    Alley Forever Young",
    "author": "黃明川電影視訊有限公司      Formosa Filmedia Co.",
    "type": "紀錄片",
    "location": "以臺北西區(大同區、萬華區、中正區)為作範圍",
    "company": "臺北市政府文化局"
  },
  {
    "city": "臺北市",
    "district": "北投區",
    "year": "2017",
    "title": "無盡藏 Endless Treasure",
    "author": "林舜龍、Yammick Dauby         Lin Shuen Long、Yammick Dauby ",
    "type": "雕塑",
    "location": "台北市北投區立德路1號---台電公司台北北區營業處辦公大樓(C 棟)及配電中心(D 棟)帶狀綠帶",
    "company": "臺灣電力股份有限公司輸變電工程處"
  },
  {
    "city": "臺北市",
    "district": "北投區",
    "year": "2017",
    "title": "仙泡兒    Saint power",
    "author": "林舜龍  Lin Shuen Long",
    "type": "雕塑",
    "location": "台北市北投區立德路1號---台電公司台北供電區營運處仙渡超高壓變電所(B 棟)轉角綠帶",
    "company": "臺灣電力股份有限公司輸變電工程處"
  },
  {
    "city": "臺北市",
    "district": "大安區",
    "year": "",
    "title": "金色故事書    My Golden Age",
    "author": "陳芯宜    ",
    "type": "紀錄片",
    "location": "youtube網頁",
    "company": "臺北市政府社會局"
  },
  {
    "city": "臺北市",
    "district": "松山區",
    "year": "2019",
    "title": "中山活力GO     zhongshan Energy - GO!",
    "author": "吳建福 - 形意藝術空間有限公司  Chien-Fu (WunderArt Co., Ltd.)",
    "type": "雕塑",
    "location": "台北市松山區復興北路361巷7號---中山國民中學校門區域",
    "company": "臺北市立中山國民中學"
  },
  {
    "city": "臺北市",
    "district": "松山區",
    "year": "2019",
    "title": "飛舞 - 大器中山   Dancing - The Talent of Zhongshan",
    "author": "吳建福 - 形意藝術空間有限公司  Chien-Fu (WunderArt Co., Ltd.)",
    "type": "雕塑",
    "location": "台北市松山區復興北路361巷7號---中山國中穿堂至教學大樓間",
    "company": "臺北市立中山國民中學"
  },
  {
    "city": "臺北市",
    "district": "松山區",
    "year": "2019",
    "title": "榮耀中山   Sun Yat-sen Honored",
    "author": "吳建福 - 形意藝術空間有限公司  Chien-Fu (WunderArt Co., Ltd.)",
    "type": "水景",
    "location": "台北市松山區復興北路361巷7號---中山國民中學翠亨園廣場",
    "company": "臺北市立中山國民中學"
  },
  {
    "city": "臺北市",
    "district": "萬華區",
    "year": "2019",
    "title": "當我們同在一起   When we are together",
    "author": "林昭慶   Lin Chaoching",
    "type": "藝術電動大門",
    "location": "臺北市萬華區西藏路125巷31號---小學部大門入口",
    "company": "臺北市萬華區新和國民小學"
  },
  {
    "city": "臺北市",
    "district": "萬華區",
    "year": "2019",
    "title": "藝起上學去    Going to school with artful atmosphere",
    "author": "林昭慶   Lin Chaoching",
    "type": "藝術電動大門",
    "location": "臺北市萬華區西藏路125巷31號---幼兒園大門入口",
    "company": "臺北市萬華區新和國民小學"
  },
  {
    "city": "臺北市",
    "district": "萬華區",
    "year": "2019",
    "title": "夢想推進器   Dream Propeller",
    "author": "林昭慶   Lin Chaoching",
    "type": "垂吊及壁掛造形",
    "location": "臺北市萬華區西藏路125巷31號---教學大樓東南向中央大樓梯與周邊列柱",
    "company": "臺北市萬華區新和國民小學"
  },
  {
    "city": "臺北市",
    "district": "萬華區",
    "year": "2019",
    "title": "夢想推進器-互動裝置",
    "author": "林昭慶   Lin Chaoching",
    "type": "運動用造型腳踏車",
    "location": "臺北市萬華區西藏路125巷31號---教學大樓東南向中央大樓梯與周邊列柱",
    "company": "臺北市萬華區新和國民小學"
  },
  {
    "city": "臺北市",
    "district": "大安區",
    "year": "2019",
    "title": "霹靂毛蟲   CATERPILLY",
    "author": "Moradavaga",
    "type": "立體其他(立體其他技法媒材或同時擁有上述兩種以上立體形式之作品)",
    "location": "臺北市大安區基隆路四段43號---第二宿舍前  草地開放空間",
    "company": "國立臺灣科技大學"
  },
  {
    "city": "臺北市",
    "district": "大安區",
    "year": "2019",
    "title": "Cycle-90°「時光」  Cycle-90° \"Time and Light\"",
    "author": "松本薰   Kaoru Matsumoto",
    "type": "雕塑",
    "location": "臺北市大安區羅斯福路四段1號---鄭江樓東南草坪",
    "company": "國立臺灣大學"
  },
  {
    "city": "臺北市",
    "district": "大安區",
    "year": "2019",
    "title": "Cycle-90°「微光森林」   Cycle-90°  \"The Glimmer Forest\"",
    "author": "松本薰   Kaoru Matsumoto",
    "type": "雕塑",
    "location": "臺北市大安區羅斯福路四段1號---發揚樓1樓天井中庭",
    "company": "國立臺灣大學"
  },
  {
    "city": "臺北市",
    "district": "中正區",
    "year": "2020",
    "title": "城南紀事，台北既事   South Town Chronicle",
    "author": "成若涵    Johan Cheng",
    "type": "垂吊及壁掛造形",
    "location": "臺北市中正區汀州路三段230巷口(寶藏巖國際藝術村入口圍牆處)",
    "company": "臺北市政府文化區"
  },
  {
    "city": "臺北市",
    "district": "北投區",
    "year": "2019",
    "title": "喜願樹   Wishing Tree",
    "author": "吳建福  WU,  CHIEN-FU",
    "type": "雕塑",
    "location": "臺北市北投區三合街1段119號---東北角廣場",
    "company": "臺北市政府社會局"
  },
  {
    "city": "臺北市",
    "district": "北投區",
    "year": "2019",
    "title": "願  Wishing",
    "author": "吳建福  WU,  CHIEN-FU",
    "type": "雕塑",
    "location": "臺北市北投區三合街1段119號---北側開放空間廣場",
    "company": "臺北市政府社會局"
  },
  {
    "city": "臺北市",
    "district": "北投區",
    "year": "2019",
    "title": "喜願花園 The Garden of Happy Wish",
    "author": "曾日昇  TSENG, JIH-SHENG",
    "type": "繪畫",
    "location": "臺北市北投區三合街1段119號---南側建築入口大廳",
    "company": "臺北市政府社會局"
  },
  {
    "city": "臺北市",
    "district": "中正區",
    "year": "2019",
    "title": "植變：身態園丁的大療癒術   ThePlant Transformation Project: The Healing Effect of Gardening",
    "author": "差事劇團   Assignment Theatre",
    "type": "其他：「身態光合：療癒戲劇場工作坊」(戲劇演出)、「五感種植：園丁的療癒術」(植栽創作)、「吐—納—覺—聽」(聲音創作裝置)、「植變聚落」(複合休憩架構)",
    "location": "臺北市中正區延平南路207號---「身態光合：療癒戲劇場工作坊」(7樓多功能教室)、「五感種植：園丁的療癒術」(1樓大門外花圃、植變聚落內)、「吐—納—覺—聽」（右側電梯內、6樓接待區、植變聚落內)、「植變聚落」((6樓戶外陽台)",
    "company": "臺北市政府社會局"
  },
  {
    "city": "臺北市",
    "district": "南港區",
    "year": "2018",
    "title": "芥子須彌  Mustard Seeds and Mount Meru (Particle vs, Universe)",
    "author": "林舜龍  Lin Shuen Long",
    "type": "雕塑",
    "location": "臺北市南港區研究院路二段70巷28號---建築東北側草坡",
    "company": "中央研究院"
  },
  {
    "city": "臺北市",
    "district": "南港區",
    "year": "2018",
    "title": "融合‧種子‧一個新的未來  Fusion, Seed, A New Future",
    "author": "富永泰雄  Tominaga Yasuo",
    "type": "雕塑",
    "location": "臺北市南港區研究院路二段70巷28號---建築西側草皮",
    "company": "中央研究院"
  },
  {
    "city": "臺北市",
    "district": "南港區",
    "year": "2018",
    "title": "土地與記憶的編織   A Weaving of Land and Memories",
    "author": "安聖惠(峨冷.魯魯安)   Eleng Luluan",
    "type": "雕塑",
    "location": "臺北市南港區研究院路二段70巷28號---建築南側庭園廣場",
    "company": "中央研究院"
  },
  {
    "city": "臺北市",
    "district": "南港區",
    "year": "2018",
    "title": "讓生命的記憶在足間流動  Let Memories of Life Flow Around Our Feet",
    "author": "林舜龍、富永泰雄、安聖惠(峨冷.魯魯安)               Lin Shuen Long,   Tominaga Yasuo, Eleng Luluan",
    "type": "壁畫(含以鑲嵌、拼貼製作之壁畫)",
    "location": "臺北市南港區研究院路二段70巷28號---跨領域科技研究大樓正門口",
    "company": "中央研究院"
  },
  {
    "city": "臺北市",
    "district": "大安區",
    "year": "2015",
    "title": "城市甘泉  Urban Oasis",
    "author": "風和設計有限公司/林俊傑  /Lin Chun-Chieh",
    "type": "雕塑",
    "location": "臺北市大安區金山南路二段219號---臨金山南路之退縮地面轉角處",
    "company": "臺灣菸酒股份有限公司"
  },
  {
    "city": "臺北市",
    "district": "文山區",
    "year": "2014",
    "title": "翡翠森林樂園 Jade Forest Park",
    "author": "黃浩德",
    "type": "立體互動裝置",
    "location": "臺北市新光路二段30號---熱帶雨林動物區入口廣場",
    "company": "臺北市立動物園"
  },
  {
    "city": "臺北市",
    "district": "內湖區",
    "year": "2014",
    "title": "迴    Circularity",
    "author": "楊尊智    Yang Tsun-Chih",
    "type": "立體其他 (立體其他技法媒材或同時擁有上述兩種以上平面形式之作品)",
    "location": "臺北市內湖路2段175號---碧湖公園東北側",
    "company": "臺北市政府文化局"
  },
  {
    "city": "臺北市",
    "district": "士林區",
    "year": "2014",
    "title": "《努力就能得到豐碩的果實》      \"Jungle Pyramid\"",
    "author": "團塚榮喜(EARTHSCAPE INC.,)+TOWN ART Co., Ltd.      Eiki Danzuka (EARTHSCAPE INC.,)+TOWN ART Co., Ltd.",
    "type": "雕塑、傢俱設施(含指標系統、座椅、燈具)",
    "location": "台北市士林區忠誠路二段101號---臺北市立大學天母校區  體育館前廣場",
    "company": "台北市立大學 (原名稱為臺北市立體育學院)"
  },
  {
    "city": "臺北市",
    "district": "士林區",
    "year": "2014",
    "title": "《勝利冠冕》    \"The Crown of Victory\"",
    "author": " 皮特‧華曼      Pete Beeman",
    "type": "雕塑",
    "location": "台北市士林區忠誠路二段101號---綜合體育館士木東路廣場草坪",
    "company": "台北市立大學 (原名稱為臺北市立體育學院)"
  },
  {
    "city": "臺北市",
    "district": "士林區",
    "year": "2014",
    "title": "《王者之球》 \" Ball of the King\"",
    "author": "皮特‧華曼      Pete Beeman",
    "type": "雕塑",
    "location": "台北市士林區忠誠路二段101號---綜合體育館西側、臨操場草坪",
    "company": "台北市立大學 (原名稱為臺北市立體育學院)"
  },
  {
    "city": "臺北市",
    "district": "士林區",
    "year": "2014",
    "title": "《旋躍 》     \"Spinning Leap\"",
    "author": "胡棟民    Hu Tung-Min",
    "type": "",
    "location": "台北市士林區忠誠路二段101號---科資大樓前方廣場",
    "company": "台北市立大學 (原名稱為臺北市立體育學院)"
  },
  {
    "city": "臺北市",
    "district": "士林區",
    "year": "2014",
    "title": "《Figure》   \"Figure\"",
    "author": "史蒂芬‧伍德沃     Stephen Woodward",
    "type": "雕塑",
    "location": "台北市士林區忠誠路二段101號---科資大樓前方廣場",
    "company": "台北市立大學 (原名稱為臺北市立體育學院)"
  },
  {
    "city": "臺北市",
    "district": "士林區",
    "year": "2014",
    "title": "《凌限》     \"Trans\"",
    "author": "連紫伊、陳彥旭     Tzui Angelique Lien,   Ash Chen.",
    "type": "壁畫(含以鑲嵌、拼貼作之壁畫)、雕塑",
    "location": "台北市士林區忠誠路二段101號---科資大樓1F大廳",
    "company": "台北市立大學 (原名稱為臺北市立體育學院)"
  },
  {
    "city": "臺北市",
    "district": "士林區",
    "year": "2020",
    "title": "呵護  Care",
    "author": "林良材  Lin Liang-tsai",
    "type": "雕塑",
    "location": "臺北市士林區士東路190之3號--偵查大樓西北側花圃(右側)",
    "company": "臺灣士林地方檢察署"
  },
  {
    "city": "臺北市",
    "district": "士林區",
    "year": "2021",
    "title": "備忘錄  Memorandum",
    "author": "張惠蘭  Chang Wwei-Lan",
    "type": "雕塑、傢俱設施(含指標系統)",
    "location": "臺北市士林區雨聲街120號--芝山文化生態綠園園區內",
    "company": "臺北市政府文化局"
  },
  {
    "city": "臺北市",
    "district": "士林區",
    "year": "2021",
    "title": "芝山 備忘錄  Zhishan Memorandum",
    "author": "張惠蘭  Chang Wwei-Lan",
    "type": "雕塑",
    "location": "臺北市士林區雨聲街120號--芝山文化生態綠園入口處",
    "company": "臺北市政府文化局"
  },
  {
    "city": "臺北市",
    "district": "內湖區",
    "year": "2019",
    "title": "1. 旅人的市集寶箱    Traveler's market treasure baskets",
    "author": "王品懿、王品捷  Wang Pin-Yi  、  Wang Pin-Chieh",
    "type": "雕塑",
    "location": "台北市內湖區江南街55號--江南街與41巷轉角處及北向飯店入口迎賓處",
    "company": "臺北市市場處"
  },
  {
    "city": "臺北市",
    "district": "大同區",
    "year": "2020",
    "title": "《藝遊吾境》 延平有愛•成長樂    Art in the Field： Love in Yanping,  Growing Happiness",
    "author": "李昀珊  Yun-Shan Lee",
    "type": "雕塑、垂吊及壁掛造形",
    "location": "臺北市大同區昌吉街97號--校園入口意象",
    "company": "臺北市大同區延平國民小學"
  },
  {
    "city": "臺北市",
    "district": "大同區",
    "year": "2020",
    "title": "《藝遊吾境》 新猩象榮•齊步走  Art in the Field：March Into Prosperity",
    "author": "潘羽祐  Yu-yo Pan",
    "type": "壁畫（含以鑲嵌、拼貼製作之壁畫）、雕塑、垂吊及壁掛造形、傢俱設施（含指標系統、座椅、燈具）",
    "location": "臺北市大同區昌吉街97號--一至二樓歷史迴廊",
    "company": "臺北市大同區延平國民小學"
  },
  {
    "city": "臺北市",
    "district": "中正區",
    "year": "2020",
    "title": "大閱讀--百年大作 A Century of Greatness",
    "author": "陶亞倫  Tao Ya-Lun",
    "type": "",
    "location": "臺北市中正區愛國西路一號--圖書館入口大廳",
    "company": "臺北市立大學"
  },
  {
    "city": "臺北市",
    "district": "中正區",
    "year": "2020",
    "title": "大閱讀--百年樹人  A Century of Nurture",
    "author": "陶亞倫  Tao Ya-Lun",
    "type": "地坪高溫影像磁磚 ",
    "location": "臺北市中正區愛國西路一號--圖書館主要入口前方戶外廣場",
    "company": "臺北市立大學"
  },
  {
    "city": "臺北市",
    "district": "信義區",
    "year": "2020",
    "title": "景勤．日安--「大冠鷲與青剛櫟」    Crested Serpent Eagle and Ring-cupped Oak",
    "author": "林昭慶  Lin Chao-Ching",
    "type": "雕塑",
    "location": "臺北市信義區信安街49號(景勤2號公園)--鄰里休憩區周邊草坪",
    "company": "臺北市停車管理工程處"
  },
  {
    "city": "臺北市",
    "district": "信義區",
    "year": "2020",
    "title": "景勤．日安--「希望種子」  The Garden of Wishes",
    "author": "林昭慶  Lin Chao-Ching",
    "type": "傢俱設施(含指標系統、座椅、燈具)",
    "location": "臺北市信義區信安街49號(景勤2號公園)--鄰吳興街220巷59弄東西側街角廣場 周邊草坪",
    "company": "臺北市停車管理工程處"
  },
  {
    "city": "臺北市",
    "district": "信義區",
    "year": "2020",
    "title": "景勤．日安--「靈鳥示警」  Spirit Bird Warning",
    "author": "林昭慶  Lin Chao-Ching",
    "type": "雕塑",
    "location": "臺北市信義區信安街49號(景勤2號公園)--展演平台活動區草坪",
    "company": "臺北市停車管理工程處"
  },
  {
    "city": "臺北市",
    "district": "萬華區",
    "year": "2021",
    "title": "即刻出動   Immediate Rescue",
    "author": "蔡燿丞、葉之秀  Tsai Yao Cheng, Yeh Chih Hsiu",
    "type": "浮雕、建築外牆壁掛",
    "location": "臺北市萬華區桂林路135號--大樓轉角、大樓格柵之間",
    "company": "臺北市政府警察局"
  },
  {
    "city": "臺北市",
    "district": "中正區",
    "year": "2020",
    "title": "噥噥時間交換所\n",
    "author": "",
    "type": "",
    "location": " ",
    "company": ""
  },
  {
    "city": "臺北市",
    "district": "中正區",
    "year": "2021",
    "title": "不知所雲",
    "author": "",
    "type": "",
    "location": "國立臺北商業大學",
    "company": ""
  },
  {
    "city": "臺北市",
    "district": "中山區",
    "year": "2020",
    "title": "寧靜 Tranquility and Peaceful",
    "author": "董陽孜 Tong Yang-Tze",
    "type": "垂吊及壁掛造形",
    "location": "台北市中山區北安路271號 遊客中心屋頂電梯屋突南側",
    "company": "財團法人基督教中華信望愛基金會     Chinese Christina Faith and Love Foundation"
  },
  {
    "city": "臺北市",
    "district": "萬華區",
    "year": "2014",
    "title": "時光站牌-萬華糖廍",
    "author": "無有設計",
    "type": "數位影像",
    "location": " ",
    "company": "臺北市政府文化局"
  },
  {
    "city": "臺北市",
    "district": "萬華區",
    "year": "2014",
    "title": "時光站牌-鐵道部",
    "author": "無有設計",
    "type": "數位影像",
    "location": " ",
    "company": "臺北市政府文化局"
  },
  {
    "city": "臺北市",
    "district": "萬華區",
    "year": "2014",
    "title": "時光站牌-華山",
    "author": "無有設計",
    "type": "數位影像",
    "location": " ",
    "company": "臺北市政府文化局"
  },
  {
    "city": "臺北市",
    "district": "萬華區",
    "year": "2014",
    "title": "時光站牌-建國啤酒廠",
    "author": "無有設計",
    "type": "數位影像",
    "location": " ",
    "company": "臺北市政府文化局"
  },
  {
    "city": "臺北市",
    "district": "萬華區",
    "year": "2014",
    "title": "時光站牌-松山菸廠",
    "author": "無有設計",
    "type": "數位影像",
    "location": " ",
    "company": "臺北市政府文化局"
  },
  {
    "city": "臺北市",
    "district": "萬華區",
    "year": "2014",
    "title": "時光站牌-臺北機廠",
    "author": "無有設計",
    "type": "數位影像",
    "location": " ",
    "company": "臺北市政府文化局"
  },
  {
    "city": "臺北市",
    "district": "信義區",
    "year": "2014",
    "title": "軌跡",
    "author": "鄒駿昇",
    "type": "",
    "location": " ",
    "company": "臺北市政府文化局"
  },
  {
    "city": "臺北市",
    "district": "信義區",
    "year": "2014",
    "title": "主題曲",
    "author": "無有設計",
    "type": "數位影像",
    "location": " ",
    "company": "臺北市政府文化局"
  },
  {
    "city": "臺北市",
    "district": "內湖區",
    "year": "2021",
    "title": "《湖光有蘊 繁華似錦》-湖光有蘊 Shimmering Lake",
    "author": "吳建福 Wu, Chien-Fu",
    "type": "雕塑",
    "location": "臺北市內湖區洲子街18號-大港墘公園地下停車場-汽車車道前左側草地",
    "company": "臺北市停車管理工程處"
  },
  {
    "city": "臺北市",
    "district": "中正區",
    "year": "2021",
    "title": "晝夜之境 Night Glass Day  Mirror ",
    "author": "王為河、呂兆民、和墨設計 Wang Wei-Ho, Lu Chao-Ming Harmony Architecture Design",
    "type": "雕塑",
    "location": "臺北市中正區忠孝西路一段70號-國家攝影文化中心臺北館中庭廣場",
    "company": "國立臺灣美術館"
  },
  {
    "city": "臺北市",
    "district": "大安區",
    "year": "2020",
    "title": "《聽見鹿鳴》-鹿鳴紀念堂 Luming Memorial  Hall ",
    "author": "張立人 CHANG, LI-REN",
    "type": "數位影像、雕塑、影像與聲音裝置",
    "location": "台北市大安區羅斯福路四段1號 國立臺灣大學-卓越聯合中心 東北側地下一樓",
    "company": "國立臺灣大學"
  },
  {
    "city": "臺北市",
    "district": "大安區",
    "year": "2020",
    "title": "《聽見鹿鳴》-鹿鳴椅 Luming Chairs",
    "author": "馮志銘 FENG, ZI-MING",
    "type": "傢俱設施(含指標系統、座椅、燈具)",
    "location": "台北市大安區羅斯福路四段1號 國立臺灣大學-卓越聯合中心 東北側地下一樓",
    "company": "國立臺灣大學"
  },
  {
    "city": "臺北市",
    "district": "大安區",
    "year": "",
    "title": "《聽見鹿鳴》-鹿鳴電台 The Luming Radio",
    "author": "邱子晏 CHOU, ZIH-YAN ",
    "type": "聲音裝置",
    "location": "台北市大安區羅斯福路四段1號 國立臺灣大學-卓越聯合中心 東北側地下一樓",
    "company": "國立臺灣大學"
  },
  {
    "city": "臺北市",
    "district": "內湖區",
    "year": "2021",
    "title": "《湖光有蘊 繁華似錦》-繁華似錦-1 Blooming Prosperity 1",
    "author": "吳建福 Wu, Chien-Fu",
    "type": "壁畫",
    "location": "臺北市內湖區洲子街18號-大港墘公園地下停車場-3號出口外牆",
    "company": "臺北市停車管理工程處"
  },
  {
    "city": "臺北市",
    "district": "內湖區",
    "year": "2021",
    "title": "《湖光有蘊 繁華似錦》-繁華似錦-2 Blooming Prosperity 2",
    "author": "吳建福 Wu, Chien-Fu",
    "type": "壁畫",
    "location": "臺北市內湖區洲子街18號-大港墘公園地下停車場-2號出口",
    "company": "臺北市停車管理工程處"
  },
  {
    "city": "臺北市",
    "district": "內湖區",
    "year": "2021",
    "title": "《湖光有蘊 繁華似錦》-繁華似錦-3 Blooming Prosperity 3",
    "author": "吳建福 Wu, Chien-Fu",
    "type": "壁畫",
    "location": "臺北市內湖區洲子街18號-大港墘公園地下停車場-4號出口",
    "company": "臺北市停車管理工程處"
  },
  {
    "city": "臺北市",
    "district": "信義區",
    "year": "2021",
    "title": "自由呼吸 Breathe Freely",
    "author": "李明道 Akibo Lee",
    "type": "數位藝術(AR)",
    "location": "臺北市信義區菸廠路88號-松山文創園區、臺北文創大樓前廣場",
    "company": "臺北市政府文化局"
  },
  {
    "city": "臺北市",
    "district": "大安區",
    "year": "2021",
    "title": "建安美樂地 JIAN AN MELODY",
    "author": "呂豪文、陳禹彤 HAUR-WEN LU & ALTHEA CHEN",
    "type": "垂吊及壁掛造形",
    "location": "臺北市大安區大安路二段99號-藝術教學綜合大樓西向牆面",
    "company": "臺北市立建安國民小學"
  },
  {
    "city": "臺北市",
    "district": "內湖區",
    "year": "2022",
    "title": "飛向太空藝想樂園 Outer Space Theme Park",
    "author": "蔡文祥 Tsai Wen-Hsyang",
    "type": "雕塑",
    "location": "臺北市內湖區康寧路三段200號-校園主要入口意象",
    "company": "臺北市內湖區南湖國民小學"
  },
  {
    "city": "臺北市",
    "district": "南港區",
    "year": "2022",
    "title": "雀雀私語 Whisper",
    "author": "胡棟民 Hu Tung-minmin",
    "type": "雕塑",
    "location": "臺北市南港區興南街62號-校園入口意象營造計畫",
    "company": "臺北市南港區東新國民小學"
  },
  {
    "city": "臺北市",
    "district": "南港區",
    "year": "2022",
    "title": "嘖嘖稱奇 Stare in Wonder",
    "author": "陳俊墉 Chen Chun-yung",
    "type": "垂吊及壁掛造形",
    "location": "臺北市南港區興南街62號-校園入口軸線教學大樓一樓穿堂挑高空間",
    "company": "臺北市南港區東新國民小學"
  },
  {
    "city": "臺北市",
    "district": "中正區",
    "year": "2021",
    "title": "《穿越校園與大社區的多重生態劇場-化羽臺‧南門口共學行動》Diverse Ecological Theater Across Campus and Big Community  ●Huayu Stage ●Co-Learning Project at Nanmen",
    "author": "南海藝工作室有限公司‧何震寰 Nanhai Art Studio ●Jen-Hwang Ho",
    "type": "以計畫型公共藝術策展，邀請多位專家及專業創author參與，組成策畫創作團隊。本計畫著重軟硬體實質共生、相互增強，強調從校內擴散至校外，從學校連結至周邊社區網路。本計畫包含對等的軟硬體兩部分，軟體計畫《南門口共學行動》，由南海藝工作室有限公司與國語實小及多位藝術專業者共同發展規劃設計，透過公共藝術教案研發、地景工作營等行動，探討師生與公共環境的互動關係；硬體計畫則是改造司令台兩側的地景藝術作品《化羽臺》，由南海藝工作室有限公司邀請何震寰老師規劃設計，，輔助軟體計畫，創造師生新的校園空間感知，點明計畫核心精神",
    "location": "臺北市中正區南海路58號-春風臺兩側",
    "company": "臺北市國語實驗國民小學"
  },
  {
    "city": "臺北市",
    "district": "北投區",
    "year": "2021",
    "title": "Gefjon",
    "author": "張永達 CHANG Yung-Ta",
    "type": "傢俱設施(含指標系統、座椅、燈具)",
    "location": "臺北市北投區學園路1號-科技藝術館三樓大廳",
    "company": "國立臺北藝術大學"
  },
  {
    "city": "臺北市",
    "district": "士林區",
    "year": "2022",
    "title": "假如 Now or Never",
    "author": "黃沛瑩、施承澤 Huang Pei-ying、Shih Cheng-ze",
    "type": "雕塑",
    "location": "臺北市士林區中正路345號-士林國民中學騰雲館前廣場",
    "company": "臺北市立士林國民中學"
  },
  {
    "city": "臺北市",
    "district": "內湖區",
    "year": "2021",
    "title": "安住‧美好花漾 Home：Beautifu Ripples",
    "author": "蔡文祥/葛菲雅奇視像空間設計有限公司 Tsai Wen-Hsiang/GA Design Communications",
    "type": "藝術圍籬",
    "location": "臺北市內湖區金湖路365號-教學大樓圍牆及大門",
    "company": "國防醫學院衛勤訓練中心"
  },
  {
    "city": "臺北市",
    "district": "文山區",
    "year": "2020",
    "title": "《藝居-家的進行式》-安巢  The Nest",
    "author": "黃蘭雅 Lanya Huang",
    "type": "浮雕、垂吊及壁掛造形",
    "location": "臺北市萬華區青年路188號-萬華青年社宅警衛室",
    "company": "臺北市政府都市發展局"
  },
  {
    "city": "臺北市",
    "district": "文山區",
    "year": "",
    "title": "《藝居-家的進行式》-翩翩 Fluttering",
    "author": "島生棲所 Biofication",
    "type": "雕塑、傢俱設施(含指標系統、座椅、燈具)",
    "location": "台北市松山區健康路313號-松山健康社宅二區老樹廣場",
    "company": "臺北市政府都市發展局"
  },
  {
    "city": "臺北市",
    "district": "文山區",
    "year": "",
    "title": "《藝居-家的進行式》-花磚聚落 XYZ Play-ing：Flower-brick Gluster",
    "author": "彡苗空間實驗 seed spacelab co.",
    "type": "傢俱設施(含指標系統、座椅、燈具)",
    "location": "台北市松山區健康路305號與313號-松山健康社宅一區草坪與二區活動中心兩側草坪",
    "company": "臺北市政府都市發展局"
  },
  {
    "city": "臺北市",
    "district": "文山區",
    "year": "2020",
    "title": "《藝居-家的進行式》-走路回家的各種形式-照夢 DREAM Going Home-Contrinuous Operation",
    "author": "紀人豪 Ren-Hao Gi",
    "type": "壁畫(含以鑲嵌、拼貼製作之壁畫)",
    "location": "臺北市文山區木柵路二段2巷12號-安康平宅保留戶(C棟)面興隆D1區社宅壁面",
    "company": "臺北市政府都市發展局"
  },
  {
    "city": "臺北市",
    "district": "文山區",
    "year": "2020",
    "title": "《藝居-家的進行式》-相互星辰 Shine on One Another",
    "author": "夏愛華 Ai-Hua Hsia",
    "type": "雕塑",
    "location": "臺北市文山區木柵路二段2巷12號-興隆社宅D1區南側鄰里廣場、A棟花臺",
    "company": "臺北市政府都市發展局"
  },
  {
    "city": "臺北市",
    "district": "文山區",
    "year": "2020",
    "title": "《藝居-家的進行式》-移動博物館 The Moving Museum",
    "author": "涂維政 Wei-Cheng Tu",
    "type": "壁畫(含以鑲嵌、拼貼製作之壁畫)、浮雕",
    "location": "台北市文山區木柵路二段138巷33號-木柵路二段138巷33號前無障礙坡道花台牆面",
    "company": "臺北市政府都市發展局"
  },
  {
    "city": "臺北市",
    "district": "文山區",
    "year": "2021",
    "title": "《藝居-家的進行式》-XYZ嬉遊中-跳跳蕊&光聚 XYZ Play-ing：Dancing Stamens & Light Spot",
    "author": "彡苗空間實驗 seed spacelab co.",
    "type": "互動裝置",
    "location": "台北市文山區興隆路四段105巷47號-興隆社宅D2區B2棟老人日間照顧中心前藍色地墊區",
    "company": "臺北市政府都市發展局"
  },
  {
    "city": "臺北市",
    "district": "文山區",
    "year": "2021",
    "title": "《藝居-家的進行式》-漫 步生活 Life in Stride",
    "author": "蔡潔莘 Chieh-Hsin Tsai",
    "type": "雕塑",
    "location": "台北市南港區南港路2段60巷17號-南港東明社宅乙棟草坪區域",
    "company": "臺北市政府都市發展局"
  },
  {
    "city": "臺北市",
    "district": "文山區",
    "year": "2021",
    "title": "《藝居-家的進行式》-家的想像 The Imagination of Home",
    "author": "邱昭財 Chao-Tsai Chiu",
    "type": "傢俱設施(含指標系統、座椅、燈具)",
    "location": "台北市南港區南港路2段60巷17號-南港東明社宅乙棟通學川廊",
    "company": "臺北市政府都市發展局"
  },
  {
    "city": "臺北市",
    "district": "文山區",
    "year": "2021",
    "title": "《藝居-家的進行式》-拾風城市 City of Wind Catching",
    "author": "島生棲所 Biofication",
    "type": "雕塑",
    "location": "台北市南港區南港路2段60巷16號-南港東明社宅甲棟北向出入口",
    "company": "臺北市政府都市發展局"
  }
]